{
  "Srirangam": {
    "supermarket": [
      {
        "name": "Kaveri Supermarket",
        "address": "131, Ammamandapam Rd, Ganapathy Nagar, Sriramapuram, Srirangam, Tiruchirappalli, Tamil Nadu 620008, Ammamandapam Road, Ganapathy Nagar, Sriramapuram",
        "latitude": 10.8467687,
        "longitude": 78.6909122,
        "rating": 4,
        "types": [
          "grocery_or_supermarket",
          "supermarket",
          "store",
          "food",
          "point_of_interest",
          "establishment"
        ]
      },
      {
        "name": "Evening Market",
        "address": "102, S, 115, South Chitra Street, Srirangam, Tiruchirappalli",
        "latitude": 10.859821,
        "longitude": 78.6892778,
        "rating": 4.4,
        "types": [
          "supermarket",
          "grocery_or_supermarket",
          "store",
          "food",
          "point_of_interest",
          "establishment"
        ]
      },
      {
        "name": "JAC DEPARTMENTAL STORE",
        "address": "15/1, Gandhi Road, Srirangam, Tiruchirappalli",
        "latitude": 10.8574237,
        "longitude": 78.69206400000002,
        "rating": 4,
        "types": [
          "supermarket",
          "grocery_or_supermarket",
          "store",
          "food",
          "point_of_interest",
          "establishment"
        ]
      },
      {
        "name": "SANTHI DEPARTMENT STORE",
        "address": "17c, Gandhi Road, Srirangam, Tiruchirappalli",
        "latitude": 10.8569777,
        "longitude": 78.69296369999999,
        "rating": 4.3,
        "types": [
          "supermarket",
          "department_store",
          "grocery_or_supermarket",
          "store",
          "food",
          "point_of_interest",
          "establishment"
        ]
      },
      {
        "name": "Gramiyaa Naattu Mara Chekku Oil",
        "address": "66, Ammamandapam Road, Ranga Nagar, Sriramapuram",
        "latitude": 10.8565419,
        "longitude": 78.6894934,
        "rating": 3.5,
        "types": [
          "supermarket",
          "grocery_or_supermarket",
          "store",
          "food",
          "point_of_interest",
          "establishment"
        ]
      },
      {
        "name": "Nandhini Traders",
        "address": "nandhini traders, 34/23, EVS Street, Ranga Nagar",
        "latitude": 10.8558807,
        "longitude": 78.6916043,
        "rating": 4,
        "types": [
          "supermarket",
          "grocery_or_supermarket",
          "store",
          "food",
          "point_of_interest",
          "establishment"
        ]
      },
      {
        "name": "Meenakshi Stores",
        "address": "Srirangam",
        "latitude": 10.8572884,
        "longitude": 78.68676359999999,
        "rating": 4,
        "types": [
          "supermarket",
          "grocery_or_supermarket",
          "store",
          "food",
          "point_of_interest",
          "establishment"
        ]
      },
      {
        "name": "Balaganapathi Maligai And General Merchant",
        "address": "18/1, Ammamandapam Road, Srirangam",
        "latitude": 10.849811,
        "longitude": 78.689582,
        "rating": 5,
        "types": [
          "supermarket",
          "grocery_or_supermarket",
          "store",
          "food",
          "point_of_interest",
          "establishment"
        ]
      },
      {
        "name": "The Best Super Market",
        "address": "61,62, Vasans Complex, Sannathi Street, Thiruvanaikoil, Tiruchirappalli",
        "latitude": 10.8526077,
        "longitude": 78.7013525,
        "rating": 3.9,
        "types": [
          "supermarket",
          "grocery_or_supermarket",
          "store",
          "food",
          "point_of_interest",
          "establishment"
        ]
      },
      {
        "name": "Home Plus",
        "address": "13/27, west St, Srirangam, Tiruchirappalli",
        "latitude": 10.8502661,
        "longitude": 78.69976989999999,
        "rating": 4.3,
        "types": [
          "supermarket",
          "grocery_or_supermarket",
          "store",
          "food",
          "point_of_interest",
          "establishment"
        ]
      },
      {
        "name": "Shri Saranga Traders",
        "address": "No.53, Water Tank Building, Periyar Nagar, Thiruvanaikoil, Tiruchirappalli",
        "latitude": 10.8488001,
        "longitude": 78.69676539999999,
        "rating": null,
        "types": [
          "supermarket",
          "grocery_or_supermarket",
          "store",
          "food",
          "point_of_interest",
          "establishment"
        ]
      },
      {
        "name": "New Victory Super Market",
        "address": "No. 1, Lulu River View Apartments, Nochiyam Pudhupalam Bus Stop, Salem Main Road, Tiruchirappalli",
        "latitude": 10.8800742,
        "longitude": 78.6944986,
        "rating": 4,
        "types": [
          "supermarket",
          "grocery_or_supermarket",
          "store",
          "food",
          "point_of_interest",
          "establishment"
        ]
      },
      {
        "name": "J.J Maligai store",
        "address": "Srirangam, Thiruvanaikoil, Tiruchirappalli",
        "latitude": 10.8497758,
        "longitude": 78.70338029999999,
        "rating": 5,
        "types": [
          "supermarket",
          "grocery_or_supermarket",
          "store",
          "food",
          "point_of_interest",
          "establishment"
        ]
      }
    ],
    "atm": [
      {
        "name": "Indian Overseas Bank - Thiruvarangam Branch",
        "address": "VM7R+3G7, East Uthrai Street, Srirangam",
        "latitude": 10.8626518,
        "longitude": 78.6913079,
        "rating": 3.4,
        "types": [
          "bank",
          "atm",
          "finance",
          "point_of_interest",
          "establishment"
        ]
      },
      {
        "name": "State Bank of India",
        "address": "No.1.South Uttara Street, Srirangam",
        "latitude": 10.8604764,
        "longitude": 78.68971739999999,
        "rating": 3.9,
        "types": [
          "bank",
          "atm",
          "finance",
          "point_of_interest",
          "establishment"
        ]
      },
      {
        "name": "State Bank Of India ATM",
        "address": "VM4Q+FWG, Srirangam",
        "latitude": 10.8561822,
        "longitude": 78.6898308,
        "rating": 4.2,
        "types": [
          "atm",
          "finance",
          "point_of_interest",
          "establishment"
        ]
      },
      {
        "name": "Sbi ATM",
        "address": "79A, North Adayavalanjan Street, Srirangam, N",
        "latitude": 10.8654199,
        "longitude": 78.69017699999999,
        "rating": 2.3,
        "types": [
          "atm",
          "finance",
          "point_of_interest",
          "establishment"
        ]
      },
      {
        "name": "Axis Bank ATM",
        "address": "No 1, Annai Illam, opposite Thangam Avenue, Srirangam, Tiruchirappalli",
        "latitude": 10.8665542,
        "longitude": 78.6934297,
        "rating": 2,
        "types": [
          "atm",
          "bank",
          "finance",
          "point_of_interest",
          "establishment"
        ]
      },
      {
        "name": "Karur vysya ATM In Karaikudi",
        "address": "13, Nelson Rd, Sriramapuram, Srirangam, Tiruchirappalli, Tamil Nadu 620006, Nelson Road, Sriramapuram",
        "latitude": 10.8639582,
        "longitude": 78.6972986,
        "rating": 5,
        "types": [
          "atm",
          "finance",
          "point_of_interest",
          "establishment"
        ]
      },
      {
        "name": "City Union Bank ATM",
        "address": "VM5W+26C, Railway Station Road, Srirangam",
        "latitude": 10.8575559,
        "longitude": 78.695514,
        "rating": 5,
        "types": [
          "atm",
          "finance",
          "point_of_interest",
          "establishment"
        ]
      },
      {
        "name": "State Bank of India ATM",
        "address": "11/7, Melur Road, Srirangam",
        "latitude": 10.8582484,
        "longitude": 78.6866787,
        "rating": 5,
        "types": [
          "atm",
          "finance",
          "point_of_interest",
          "establishment"
        ]
      },
      {
        "name": "Union Bank ATM",
        "address": "VP52+2XJ, VS Nagar, Thiruvanaikoil",
        "latitude": 10.8575846,
        "longitude": 78.7023899,
        "rating": 4.8,
        "types": [
          "atm",
          "finance",
          "point_of_interest",
          "establishment"
        ]
      },
      {
        "name": "HDFC Bank",
        "address": "18, Ammamandapam Road, Srirangam, Tiruchirappalli",
        "latitude": 10.848481,
        "longitude": 78.689903,
        "rating": 1.8,
        "types": [
          "bank",
          "atm",
          "finance",
          "point_of_interest",
          "establishment"
        ]
      },
      {
        "name": "City Union Bank Atm And Bus Stop",
        "address": "RMWQ+XX9, Ganapathy Nagar, Sriramapuram",
        "latitude": 10.847408,
        "longitude": 78.6899945,
        "rating": null,
        "types": [
          "atm",
          "finance",
          "point_of_interest",
          "establishment"
        ]
      },
      {
        "name": "City Union Bank ATM",
        "address": "51, Ammamandapam Road, Sriramapuram",
        "latitude": 10.8572398,
        "longitude": 78.68942,
        "rating": 3.4,
        "types": [
          "atm",
          "finance",
          "point_of_interest",
          "establishment"
        ]
      },
      {
        "name": "Indian Overseas Bank",
        "address": "Opposite East Gopuram, 178, North Uthrai Street, Srirangam",
        "latitude": 10.8626729,
        "longitude": 78.691277,
        "rating": 3.5,
        "types": [
          "atm",
          "finance",
          "point_of_interest",
          "establishment"
        ]
      },
      {
        "name": "INDIAN BANK",
        "address": "47, 195, East Uthrai Street, Srirangam",
        "latitude": 10.8615297,
        "longitude": 78.6912459,
        "rating": 2.8,
        "types": [
          "bank",
          "atm",
          "finance",
          "point_of_interest",
          "establishment"
        ]
      },
      {
        "name": "SBI Kizhakkuvasal ATM",
        "address": "VM6V+WM5, Sriramapuram",
        "latitude": 10.8622528,
        "longitude": 78.69423080000001,
        "rating": 4.3,
        "types": [
          "atm",
          "finance",
          "point_of_interest",
          "establishment"
        ]
      },
      {
        "name": "State Bank E Corner",
        "address": "VM6Q+J87, South Chitra St, Bangur Dhariyasala, Srirangam, Tiruchirappalli",
        "latitude": 10.861533,
        "longitude": 78.688305,
        "rating": 4.5,
        "types": [
          "atm",
          "finance",
          "point_of_interest",
          "establishment"
        ]
      },
      {
        "name": "ICICI Bank ATM",
        "address": "ICICI Bank LTD, 100, South Chitra Street, Srirangam, Tiruchirappalli",
        "latitude": 10.8597356,
        "longitude": 78.69033259999999,
        "rating": null,
        "types": [
          "atm",
          "finance",
          "point_of_interest",
          "establishment"
        ]
      },
      {
        "name": "HDFC Bank ATM",
        "address": "18, Ammamandapam Road, Srirangam, Tiruchirappalli",
        "latitude": 10.8574238,
        "longitude": 78.6908061,
        "rating": 1,
        "types": [
          "atm",
          "finance",
          "point_of_interest",
          "establishment"
        ]
      },
      {
        "name": "Karur Vysya Bank ATM",
        "address": "Shop No.9, Yatri Nivas, Panjakkarai Salai, Srirangam, Srirangam, Tiruchirappalli",
        "latitude": 10.8657996,
        "longitude": 78.698086,
        "rating": null,
        "types": [
          "atm",
          "finance",
          "point_of_interest",
          "establishment"
        ]
      },
      {
        "name": "IDBI Bank ATM",
        "address": "17, Gandhi Road, Srirangam, Tiruchirappalli",
        "latitude": 10.8570401,
        "longitude": 78.6932787,
        "rating": null,
        "types": [
          "atm",
          "finance",
          "point_of_interest",
          "establishment"
        ]
      },
      {
        "name": "idbi atm",
        "address": "10/7, Patel Road, Gandhi Road, Sriramapuram",
        "latitude": 10.8570068,
        "longitude": 78.6933107,
        "rating": 5,
        "types": [
          "atm",
          "finance",
          "point_of_interest",
          "establishment"
        ]
      },
      {
        "name": "Karur Vysya Bank ATM",
        "address": "8 A, Thiruvadi Street, Srirangam, Tiruchirappalli",
        "latitude": 10.8580512,
        "longitude": 78.687803,
        "rating": null,
        "types": [
          "atm",
          "finance",
          "point_of_interest",
          "establishment"
        ]
      },
      {
        "name": "Karur Vysya Bank ATM",
        "address": "VM5P+7QJ, Srirangam, Tiruchirappalli",
        "latitude": 10.8582039,
        "longitude": 78.686886,
        "rating": 4,
        "types": [
          "atm",
          "finance",
          "point_of_interest",
          "establishment"
        ]
      },
      {
        "name": "CANARA BANK ATM",
        "address": "17, Gandhi Road, Srirangam, Tiruchirappalli",
        "latitude": 10.8561306,
        "longitude": 78.6902923,
        "rating": null,
        "types": [
          "atm",
          "finance",
          "point_of_interest",
          "establishment"
        ]
      },
      {
        "name": "CANARA BANK ATM",
        "address": "7, EVS Street, Ranga Nagar, SRIRANGAM, Tiruchirappalli",
        "latitude": 10.855969,
        "longitude": 78.6902724,
        "rating": null,
        "types": [
          "atm",
          "finance",
          "point_of_interest",
          "establishment"
        ]
      },
      {
        "name": "CANARA BANK ATM",
        "address": "JAYA SREE SUDARSANA FLATS NO-5A, Raghavendrapuram, SRIRANGAM, Tiruchirappalli",
        "latitude": 10.8571642,
        "longitude": 78.6868977,
        "rating": 4.3,
        "types": [
          "atm",
          "finance",
          "point_of_interest",
          "establishment"
        ]
      },
      {
        "name": "Indian Overseas Bank ATM TNNLU",
        "address": "Ground floor, Amenities Block, Tamil Nadu National Law University, Taluk, Srirangam, Navalurkuttappattu",
        "latitude": 10.8560296,
        "longitude": 78.6965972,
        "rating": null,
        "types": [
          "atm",
          "finance",
          "point_of_interest",
          "establishment"
        ]
      },
      {
        "name": "CENTRAL BANK OF INDIA - ATM",
        "address": "JAC DEPARTMENT STORE, 100, Gandhi Road, Srirangam, Tiruchirappalli",
        "latitude": 10.8570204,
        "longitude": 78.68510119999999,
        "rating": null,
        "types": [
          "atm",
          "finance",
          "point_of_interest",
          "establishment"
        ]
      },
      {
        "name": "Karur Vysya Bank ATM",
        "address": "Shop No.4, 1.331, S.No, 24/24, Main Road, Somarasampettai",
        "latitude": 10.854202,
        "longitude": 78.6888757,
        "rating": null,
        "types": [
          "atm",
          "finance",
          "point_of_interest",
          "establishment"
        ]
      },
      {
        "name": "IDFC First Bank Kiosk/Micro ATM",
        "address": "33, Ammamandapam Road, Srirangam",
        "latitude": 10.8522393,
        "longitude": 78.68954219999999,
        "rating": 4.9,
        "types": [
          "atm",
          "bank",
          "finance",
          "point_of_interest",
          "establishment"
        ]
      },
      {
        "name": "Kotak Mahindra Bank ATM",
        "address": "Sri Ram Kalyana Mahal Complex, Rajagopuram Front Side, 77/7, Ammamandapam Road, srirangam, Tiruchirappalli",
        "latitude": 10.84953,
        "longitude": 78.68847,
        "rating": null,
        "types": [
          "atm",
          "finance",
          "point_of_interest",
          "establishment"
        ]
      },
      {
        "name": "Indian Overseas Bank",
        "address": "6, Kamdhenu Complex, Near TV Kovil Bus Stop, Main Road, Thiruvanaikovil, Tiruchirappalli",
        "latitude": 10.8512399,
        "longitude": 78.699878,
        "rating": 2.3,
        "types": [
          "atm",
          "finance",
          "point_of_interest",
          "establishment"
        ]
      },
      {
        "name": "Karur Vysya Bank ATM",
        "address": "27-B/14, EVS Street, Ranga Nagar, Srirangam, Tiruchirappalli",
        "latitude": 10.8489297,
        "longitude": 78.6908212,
        "rating": null,
        "types": [
          "atm",
          "finance",
          "point_of_interest",
          "establishment"
        ]
      },
      {
        "name": "Canara Bank Atm",
        "address": "VP33+44W, Sannathi Street, Srirangam, Thiruvanaikoil",
        "latitude": 10.8528722,
        "longitude": 78.7028338,
        "rating": 3.5,
        "types": [
          "atm",
          "finance",
          "point_of_interest",
          "establishment"
        ]
      },
      {
        "name": "Karur Vysya Bank ATM",
        "address": "No.80/86, South Gate, Srirangam, Tiruchirappalli",
        "latitude": 10.8502661,
        "longitude": 78.69976989999999,
        "rating": null,
        "types": [
          "atm",
          "finance",
          "point_of_interest",
          "establishment"
        ]
      },
      {
        "name": "Karur Vysya Bank ATM",
        "address": "RMXQ+6VG, Ammamandapam Road, Srirangam, Tiruchirappalli",
        "latitude": 10.8480664,
        "longitude": 78.6896885,
        "rating": 5,
        "types": [
          "atm",
          "finance",
          "point_of_interest",
          "establishment"
        ]
      },
      {
        "name": "HDFC Bank",
        "address": "Amma Mandapam, No B2, 2nd Street Extn, Navneet Andal, Srirangam, Tiruchirappalli",
        "latitude": 10.8479246,
        "longitude": 78.69113109999999,
        "rating": null,
        "types": [
          "bank",
          "atm",
          "finance",
          "point_of_interest",
          "establishment"
        ]
      },
      {
        "name": "Karur Vysya Bank ATM",
        "address": "101 East Puliwar, Main Road, Tiruchirappalli",
        "latitude": 10.8479514,
        "longitude": 78.69311019999999,
        "rating": null,
        "types": [
          "atm",
          "finance",
          "point_of_interest",
          "establishment"
        ]
      },
      {
        "name": "South Indian Bank ATM",
        "address": "4/221-A, Tiruchirapalli - Salem Main Road, Nochiyam",
        "latitude": 10.8808569,
        "longitude": 78.691458,
        "rating": null,
        "types": [
          "atm",
          "finance",
          "point_of_interest",
          "establishment"
        ]
      }
    ],
    "school": [
      {
        "name": "Prassanna Municipal Primary School",
        "address": "VM8Q+45R, N Adayavalanjan St, Ranga Nagar, Srirangam, Tiruchirappalli",
        "latitude": 10.8653568,
        "longitude": 78.687887,
        "rating": null,
        "types": [
          "primary_school",
          "school",
          "point_of_interest",
          "establishment"
        ]
      },
      {
        "name": "Sri Trayee Vidya Gurukulam",
        "address": "near Kollidam River, North Gate, Srirangam, Tiruchirappalli",
        "latitude": 10.868568,
        "longitude": 78.6904912,
        "rating": 4.7,
        "types": [
          "school",
          "point_of_interest",
          "establishment"
        ]
      },
      {
        "name": "South Renga Middle School",
        "address": "South, Chithirai Street, Srirangam, Tiruchirappalli",
        "latitude": 10.859883,
        "longitude": 78.6876582,
        "rating": 4,
        "types": [
          "school",
          "point_of_interest",
          "establishment"
        ]
      },
      {
        "name": "Sub Treasury",
        "address": "620006, Sriramapuram",
        "latitude": 10.8599636,
        "longitude": 78.6812191,
        "rating": 3.3,
        "types": [
          "school",
          "point_of_interest",
          "establishment"
        ]
      },
      {
        "name": "Natural Therapeutics Centre - Yoga Center | Acupuncture",
        "address": "50/186,, Periyar Nagar, Thiruvanaikoil, Tiruchirappalli",
        "latitude": 10.8494381,
        "longitude": 78.6962138,
        "rating": null,
        "types": [
          "school",
          "health",
          "point_of_interest",
          "establishment"
        ]
      },
      {
        "name": "Sri Vageesha Vidhyashram Senior Secondary school (CBSE)",
        "address": "VM9F+GXM, Melur Road, Srirangam, Tiruchirappalli",
        "latitude": 10.8685513,
        "longitude": 78.6763315,
        "rating": 4.1,
        "types": [
          "school",
          "point_of_interest",
          "establishment"
        ]
      },
      {
        "name": "paadhuga vidhyalaya",
        "address": "154, Uthrai St N, Sriramapuram, Tiruchirappalli",
        "latitude": 10.8640061,
        "longitude": 78.6913416,
        "rating": null,
        "types": [
          "school",
          "point_of_interest",
          "establishment"
        ]
      },
      {
        "name": "Sri RengaNayaki Veenai Vidhyalayam",
        "address": "11/1, E Big St, Srirangam, Srirangam, Tiruchirappalli",
        "latitude": 10.8645302,
        "longitude": 78.6923272,
        "rating": 5,
        "types": [
          "school",
          "point_of_interest",
          "establishment"
        ]
      },
      {
        "name": "Dr.G.Chitrambalam matriculation school",
        "address": "37/39, Srirangam",
        "latitude": 10.864515,
        "longitude": 78.692849,
        "rating": 3.6,
        "types": [
          "school",
          "point_of_interest",
          "establishment"
        ]
      },
      {
        "name": "Dr.Rajan Municipal Middle School",
        "address": "VM6R+VVV, East Chitra Street, Srirangam, Tiruchirappalli",
        "latitude": 10.8622278,
        "longitude": 78.69218719999999,
        "rating": 5,
        "types": [
          "school",
          "point_of_interest",
          "establishment"
        ]
      },
      {
        "name": "East Renga Middle School",
        "address": "VM6V+V4C, East Adayavalanjan Street, Srirangam",
        "latitude": 10.8621863,
        "longitude": 78.6927742,
        "rating": 5,
        "types": [
          "school",
          "point_of_interest",
          "establishment"
        ]
      },
      {
        "name": "Veena classes",
        "address": "C1, First floor, diamondz Garuda appartments, East Adayavalanjan Street, Srirangam, Tiruchirappalli",
        "latitude": 10.8652039,
        "longitude": 78.69299989999999,
        "rating": 5,
        "types": [
          "school",
          "point_of_interest",
          "establishment"
        ]
      },
      {
        "name": "Sreekids",
        "address": "opp. VS Mahal, 245/237 keela, East Adayavalanjan Street, Srirangam, Tiruchirappalli",
        "latitude": 10.8611573,
        "longitude": 78.6927826,
        "rating": null,
        "types": [
          "school",
          "point_of_interest",
          "establishment"
        ]
      },
      {
        "name": "ஸ்ரீ முனீஸ்வரர் திருக்கோவில்",
        "address": "VM7V+6VC, Srirangam, Tiruchirappalli",
        "latitude": 10.8630929,
        "longitude": 78.6946018,
        "rating": null,
        "types": [
          "secondary_school",
          "school",
          "point_of_interest",
          "establishment"
        ]
      },
      {
        "name": "Royal Chess Academy,Sri rangam",
        "address": "109/92, 109/92, Singer Kovil Street, Srirangam, Tiruchirappalli",
        "latitude": 10.8617328,
        "longitude": 78.6945492,
        "rating": 5,
        "types": [
          "school",
          "point_of_interest",
          "establishment"
        ]
      },
      {
        "name": "Srirangam Girls Higher Secondary School",
        "address": "Near Railway Station, 43, Kanniappan Street, Srirangam",
        "latitude": 10.8620655,
        "longitude": 78.6953435,
        "rating": 4.5,
        "types": [
          "school",
          "point_of_interest",
          "establishment"
        ]
      },
      {
        "name": "Kalaivani Nursery and Primary School",
        "address": "VM6V+7QQ, Srirangam, Tiruchirappalli",
        "latitude": 10.8607012,
        "longitude": 78.69448059999999,
        "rating": 3.9,
        "types": [
          "primary_school",
          "school",
          "point_of_interest",
          "establishment"
        ]
      },
      {
        "name": "Srirangam Kainkaryalayam",
        "address": "New No.18 / Old No.156, South, West Chitra Street, Srirangam, Tiruchirappalli",
        "latitude": 10.859649,
        "longitude": 78.6916957,
        "rating": null,
        "types": [
          "school",
          "point_of_interest",
          "establishment"
        ]
      },
      {
        "name": "Govt Exam Clear",
        "address": "15, 29, South Chitra Street, Srirangam, Tiruchirappalli",
        "latitude": 10.8597352,
        "longitude": 78.6903397,
        "rating": 5,
        "types": [
          "school",
          "point_of_interest",
          "establishment"
        ]
      },
      {
        "name": "The Kalaivaani Matriculation School",
        "address": "VM6V+5VX, Singer Kovil Street, Srirangam",
        "latitude": 10.8604975,
        "longitude": 78.6947328,
        "rating": 3.6,
        "types": [
          "school",
          "point_of_interest",
          "establishment"
        ]
      },
      {
        "name": "SREE ACADEMY",
        "address": "VM5V+P22, East Adayavalanjan Street, Sriramapuram",
        "latitude": 10.8592684,
        "longitude": 78.6925033,
        "rating": null,
        "types": [
          "school",
          "point_of_interest",
          "establishment"
        ]
      },
      {
        "name": "The Higher Secondary School for Boys srirangam",
        "address": "Shop No. 2, Singer Kovil Street, Srirangam, Tiruchirappalli",
        "latitude": 10.860476,
        "longitude": 78.69522189999999,
        "rating": 4.5,
        "types": [
          "point_of_interest",
          "school",
          "establishment"
        ]
      },
      {
        "name": "Sri Bagawan Nursery & Primary School Srirangam",
        "address": "Railway B Class land, Nelson Road, Sriramapuram, Tiruchirappalli",
        "latitude": 10.8632473,
        "longitude": 78.6966422,
        "rating": 4.4,
        "types": [
          "point_of_interest",
          "school",
          "establishment"
        ]
      },
      {
        "name": "THIRUMAL TUITION CENTRE",
        "address": "197 62, West Adayavalanjan Street, Sriramapuram, Tiruchirappalli",
        "latitude": 10.8651872,
        "longitude": 78.6870854,
        "rating": 5,
        "types": [
          "school",
          "point_of_interest",
          "establishment"
        ]
      },
      {
        "name": "Seshagiri home",
        "address": "104, West Gate, Srirangam, Tiruchirappalli",
        "latitude": 10.8620811,
        "longitude": 78.6868391,
        "rating": null,
        "types": [
          "secondary_school",
          "point_of_interest",
          "school",
          "establishment"
        ]
      },
      {
        "name": "Trichy Corporation Middle School",
        "address": "65A, North Devi Street, Shankar Nagar, Tiruchirappalli",
        "latitude": 10.8587651,
        "longitude": 78.6938613,
        "rating": 4,
        "types": [
          "point_of_interest",
          "school",
          "establishment"
        ]
      },
      {
        "name": "AYYANAR CORP HS, MELUR",
        "address": "VM7P+GG5, Melur Road, Srirangam",
        "latitude": 10.8637631,
        "longitude": 78.6863618,
        "rating": 5,
        "types": [
          "school",
          "point_of_interest",
          "establishment"
        ]
      },
      {
        "name": "Devi Corporation School",
        "address": "232, North Devi Street, Shankar Nagar",
        "latitude": 10.8584934,
        "longitude": 78.6934021,
        "rating": 3,
        "types": [
          "point_of_interest",
          "school",
          "establishment"
        ]
      },
      {
        "name": "SHIRIDI SAI MATHS HOME TUITION",
        "address": "G 6, A - BLOCK, ANAND AVENUE, Melur Road, Srirangam, Tiruchirappalli",
        "latitude": 10.8617604,
        "longitude": 78.68639329999999,
        "rating": null,
        "types": [
          "point_of_interest",
          "school",
          "establishment"
        ]
      },
      {
        "name": "Municipal Primary School South Chitra Street",
        "address": "VM5Q+W2J, South Chitra Street, Sriramapuram, Srirangam, Tiruchirappalli",
        "latitude": 10.8598412,
        "longitude": 78.6875297,
        "rating": 5,
        "types": [
          "primary_school",
          "point_of_interest",
          "school",
          "establishment"
        ]
      },
      {
        "name": "RMS Nursery and Primary School",
        "address": "7/A, Melur Road, Sriramapuram",
        "latitude": 10.8667438,
        "longitude": 78.6870192,
        "rating": 4.5,
        "types": [
          "primary_school",
          "point_of_interest",
          "school",
          "establishment"
        ]
      },
      {
        "name": "Brainobrain Srirangam",
        "address": "No 7, North Devi Street, Srirangam, Pankajam Colony, Tiruchirappalli",
        "latitude": 10.8578293,
        "longitude": 78.6931887,
        "rating": null,
        "types": [
          "school",
          "point_of_interest",
          "establishment"
        ]
      },
      {
        "name": "Srirangam Chess Master's Academy",
        "address": "Flat E, 2nd floor, Bharath Green Avenue, Salai Road, Srirangam, southernside",
        "latitude": 10.8619419,
        "longitude": 78.6858611,
        "rating": 4,
        "types": [
          "point_of_interest",
          "school",
          "establishment"
        ]
      },
      {
        "name": "Sri Chess Academy",
        "address": "Sannidhi, 5,G1 Lakshmi narasimha Flats Dasavadhara, Ramanujar Street, Srirangam",
        "latitude": 10.8677448,
        "longitude": 78.6872037,
        "rating": 3.5,
        "types": [
          "point_of_interest",
          "school",
          "establishment"
        ]
      },
      {
        "name": "அர்ச்சகர் பயிற்சி பள்ளி - வைணவம்",
        "address": "VM8X+85J, Tiruchirappalli",
        "latitude": 10.8658326,
        "longitude": 78.69790549999999,
        "rating": null,
        "types": [
          "school",
          "point_of_interest",
          "establishment"
        ]
      },
      {
        "name": "CA Students' Study Circle",
        "address": "1B East Renganathapuram, Srirangam",
        "latitude": 10.8567717,
        "longitude": 78.6928381,
        "rating": 3.5,
        "types": [
          "school",
          "point_of_interest",
          "establishment"
        ]
      },
      {
        "name": "CA SSC Academy",
        "address": "7, Gandhi Road, Srirangam, Tiruchirappalli",
        "latitude": 10.8565415,
        "longitude": 78.6927905,
        "rating": null,
        "types": [
          "point_of_interest",
          "school",
          "establishment"
        ]
      },
      {
        "name": "Happy Hands Play School",
        "address": "62/1, Thirruvalluvar Street, Srirangam, Tiruchirappalli",
        "latitude": 10.858883,
        "longitude": 78.6861624,
        "rating": 4.9,
        "types": [
          "point_of_interest",
          "school",
          "establishment"
        ]
      },
      {
        "name": "Mds Gurukulam",
        "address": "5/2, Sriramapuram",
        "latitude": 10.856222,
        "longitude": 78.69101599999999,
        "rating": null,
        "types": [
          "school",
          "point_of_interest",
          "establishment"
        ]
      },
      {
        "name": "SIP ABACUS SRIRANGAM TRICHY",
        "address": "4/N11, Srirangam",
        "latitude": 10.8566179,
        "longitude": 78.688378,
        "rating": 5,
        "types": [
          "point_of_interest",
          "school",
          "establishment"
        ]
      },
      {
        "name": "Srirangam Online Sloka Classes",
        "address": "Floor, G Block-2, Vignesh Arunodhaya, Flat No: FF-107, First, Srirangam, Apartments, Melur Road, Srirangam, Tiruchirappalli",
        "latitude": 10.8672194,
        "longitude": 78.6846936,
        "rating": 5,
        "types": [
          "school",
          "point_of_interest",
          "establishment"
        ]
      },
      {
        "name": "Sri Hayagreva Academy (Play school, Keyboard, Handwriting sloka Hindi classes in Srirangam, Trichy)",
        "address": "No.5/4, Raghav Nivas, 2nd street, Raghavendrapuram",
        "latitude": 10.8573276,
        "longitude": 78.6869585,
        "rating": 4.9,
        "types": [
          "school",
          "point_of_interest",
          "establishment"
        ]
      },
      {
        "name": "TARGET MATHS COACHING",
        "address": "7C, SINGAR NIVAS, SARATHY NAGAR II CROSS, Nelson Road, Srirangam, Thiruvanaikoil",
        "latitude": 10.8589549,
        "longitude": 78.6982704,
        "rating": null,
        "types": [
          "school",
          "point_of_interest",
          "establishment"
        ]
      },
      {
        "name": "Isai Arangam, Music School",
        "address": "VM4P+RW4, Sriramapuram",
        "latitude": 10.8570037,
        "longitude": 78.6873145,
        "rating": 5,
        "types": [
          "school",
          "point_of_interest",
          "establishment"
        ]
      },
      {
        "name": "Vignesh Sri Renga Matric Hr.Sec. School,",
        "address": "Ragavendrapuram, 18, Raghavendra Mutt Road, Srirangam, Tiruchirappalli",
        "latitude": 10.8561537,
        "longitude": 78.6885001,
        "rating": 4.5,
        "types": [
          "school",
          "point_of_interest",
          "establishment"
        ]
      },
      {
        "name": "ITHAM PHYSIOTHERAPY CLINIC. Enter Raghavendra arch take 3Rd right &1st left. Enter road connecting to udhayalakshmi apt.",
        "address": "Raghavendrapuram, near Meenakshi stores, 2nd Street, The road, Srirangam, Tiruchirappalli",
        "latitude": 10.8573802,
        "longitude": 78.6863767,
        "rating": 5,
        "types": [
          "school",
          "doctor",
          "point_of_interest",
          "health",
          "establishment"
        ]
      },
      {
        "name": "Cool Kids",
        "address": "5, South Devi Street, Srirangam, Tiruchirappalli",
        "latitude": 10.8552571,
        "longitude": 78.69345109999999,
        "rating": 5,
        "types": [
          "school",
          "point_of_interest",
          "establishment"
        ]
      },
      {
        "name": "Srirangam Lalitha rajakumar devotional music",
        "address": "Raghavendra Puram Road, Srirangam, Tiruchirappalli",
        "latitude": 10.8567582,
        "longitude": 78.68627579999999,
        "rating": 5,
        "types": [
          "school",
          "point_of_interest",
          "establishment"
        ]
      },
      {
        "name": "Joyful Journey Play School",
        "address": "No:40/10A-1, Rajaji Street, Ranga Nagar, Srirangam, Tiruchirappalli",
        "latitude": 10.8548892,
        "longitude": 78.6928897,
        "rating": 5,
        "types": [
          "school",
          "point_of_interest",
          "establishment"
        ]
      },
      {
        "name": "Ragavendra Mandir",
        "address": "Sri Rangam, Srirangam, Srirangam, Tiruchirappalli",
        "latitude": 10.856607,
        "longitude": 78.697215,
        "rating": null,
        "types": [
          "school",
          "point_of_interest",
          "establishment"
        ]
      },
      {
        "name": "Ranganagar Corporation Primary School",
        "address": "VM3R+Q3R, Ranga Nagar",
        "latitude": 10.8544826,
        "longitude": 78.6901559,
        "rating": null,
        "types": [
          "primary_school",
          "school",
          "point_of_interest",
          "establishment"
        ]
      },
      {
        "name": "kalalayaa Srirangam Pre School",
        "address": "Sri, 2/3, near Vinayagar Temple, opp. Venkateshwara Theatre, Ragavendra Garden, Thiruvanaikoil, Tiruchirappalli",
        "latitude": 10.8587062,
        "longitude": 78.7000498,
        "rating": 5,
        "types": [
          "primary_school",
          "school",
          "point_of_interest",
          "establishment"
        ]
      },
      {
        "name": "Srirangam Girls Higher Secondary School",
        "address": "8, Sathya Moorthy Street, Sriramapuram, Tiruchirappalli",
        "latitude": 10.8549042,
        "longitude": 78.6960878,
        "rating": 4.5,
        "types": [
          "school",
          "point_of_interest",
          "establishment"
        ]
      },
      {
        "name": "Bodhi Premam Charitable Trust",
        "address": "1/2, Mangamma Nagar, Srirangam, Tiruchirappalli",
        "latitude": 10.8545111,
        "longitude": 78.68731129999999,
        "rating": null,
        "types": [
          "school",
          "point_of_interest",
          "establishment"
        ]
      },
      {
        "name": "Government KG school",
        "address": "VM4X+9HR, Srirangam",
        "latitude": 10.8559852,
        "longitude": 78.6988853,
        "rating": null,
        "types": [
          "school",
          "point_of_interest",
          "establishment"
        ]
      },
      {
        "name": "Kids Campus International Pre School",
        "address": "4, Gandhi Road, Srirangam",
        "latitude": 10.854446,
        "longitude": 78.69689590000002,
        "rating": 4,
        "types": [
          "school",
          "point_of_interest",
          "establishment"
        ]
      },
      {
        "name": "Online Chess Coaching for Kids",
        "address": "G-10, vickys garden, Nelson Road, Srinivasa Nagar North Extension, Tiruchirappalli",
        "latitude": 10.8555264,
        "longitude": 78.69881869999999,
        "rating": null,
        "types": [
          "school",
          "point_of_interest",
          "establishment"
        ]
      },
      {
        "name": "Bharathi IAS Academy",
        "address": "First Floor, BHARATHI IAS ACADEMY Best TNPSC Centre in Trichy 113 Lakshmi Nagar, behind EB Sub Station, Melur Road, Srirangam, Landmark:, Tiruchirappalli",
        "latitude": 10.8605441,
        "longitude": 78.6813722,
        "rating": 4.8,
        "types": [
          "library",
          "school",
          "point_of_interest",
          "establishment"
        ]
      },
      {
        "name": "Mpa",
        "address": "6/18, 5th St, Srinivasa Nagar, Thiruvanaikoil",
        "latitude": 10.854095,
        "longitude": 78.6969027,
        "rating": null,
        "types": [
          "school",
          "point_of_interest",
          "establishment"
        ]
      },
      {
        "name": "Sree Vaijayanthee Vidyalaya",
        "address": "VM3P+QC4, Mangamma Nagar, Srirangam, Tiruchirappalli",
        "latitude": 10.8543872,
        "longitude": 78.6860726,
        "rating": 4.1,
        "types": [
          "school",
          "point_of_interest",
          "establishment"
        ]
      }
    ]
  },
  "Woraiyur": {
    "supermarket": [
      {
        "name": "Kumudham Department Store",
        "address": "Pla, Kanagu Tower, 11th Cross East Road, Tiruchirappalli",
        "latitude": 10.819233,
        "longitude": 78.6837639,
        "rating": 4.2,
        "types": [
          "supermarket",
          "department_store",
          "grocery_or_supermarket",
          "food",
          "point_of_interest",
          "store",
          "establishment"
        ]
      },
      {
        "name": "Kaveri Super Market",
        "address": "Near Sadarsan Hospital, No-110, Palayam Bazaar Road, Woraiyur, Tiruchirappalli",
        "latitude": 10.8213054,
        "longitude": 78.6766882,
        "rating": 3.8,
        "types": [
          "supermarket",
          "grocery_or_supermarket",
          "food",
          "point_of_interest",
          "store",
          "establishment"
        ]
      },
      {
        "name": "Mano Mushrooms",
        "address": "RM8P+5MG, uzhavar santhai, Anna Nagar, Thillai Nagar, Tiruchirappalli",
        "latitude": 10.8154261,
        "longitude": 78.6867182,
        "rating": 3.6,
        "types": [
          "supermarket",
          "grocery_or_supermarket",
          "food",
          "point_of_interest",
          "store",
          "establishment"
        ]
      },
      {
        "name": "sri Sundha Kirana Store",
        "address": "street Bharath complex, Chinna Sowrastra Street, Kamala, Tiruchirappalli",
        "latitude": 10.8186752,
        "longitude": 78.6957058,
        "rating": 4.4,
        "types": [
          "grocery_or_supermarket",
          "supermarket",
          "food",
          "point_of_interest",
          "store",
          "establishment"
        ]
      },
      {
        "name": "ANANDA SUPER MARKET",
        "address": "#156, Big Kammala Street, Tharanallur, Tiruchirappalli",
        "latitude": 10.8179542,
        "longitude": 78.6961335,
        "rating": 3.9,
        "types": [
          "supermarket",
          "grocery_or_supermarket",
          "food",
          "point_of_interest",
          "store",
          "establishment"
        ]
      },
      {
        "name": "THARIQ STORE",
        "address": "23, Hithayath Nagar, Tiruchirappalli",
        "latitude": 10.812313,
        "longitude": 78.69175849999999,
        "rating": 5,
        "types": [
          "grocery_or_supermarket",
          "supermarket",
          "food",
          "point_of_interest",
          "store",
          "establishment"
        ]
      },
      {
        "name": "thagamani Provisional Store",
        "address": "99, Pallivasal Ln, Singarathope, Tharanallur, Tiruchirappalli, Tamil Nadu 620008, Pallivasal Lane, Singarathope, Tharanallur, Tiruchirappalli",
        "latitude": 10.8225861,
        "longitude": 78.6951539,
        "rating": 4,
        "types": [
          "supermarket",
          "grocery_or_supermarket",
          "food",
          "point_of_interest",
          "store",
          "establishment"
        ]
      },
      {
        "name": "Sanghvi & Co",
        "address": "245, Big Bazaar Street, Tharanallur, Tiruchirappalli",
        "latitude": 10.817339,
        "longitude": 78.6968823,
        "rating": 3.8,
        "types": [
          "supermarket",
          "grocery_or_supermarket",
          "food",
          "point_of_interest",
          "store",
          "establishment"
        ]
      },
      {
        "name": "Tamil Nadu Footwear",
        "address": "Palakarai, Sangillyandapuram, Tiruchirappalli",
        "latitude": 10.810755,
        "longitude": 78.694312,
        "rating": 4.4,
        "types": [
          "supermarket",
          "grocery_or_supermarket",
          "food",
          "point_of_interest",
          "store",
          "establishment"
        ]
      },
      {
        "name": "Chintamani Super Market",
        "address": "RMGV+HHG, NSB Road, Theppakulam",
        "latitude": 10.8264416,
        "longitude": 78.693968,
        "rating": 4,
        "types": [
          "supermarket",
          "grocery_or_supermarket",
          "food",
          "point_of_interest",
          "store",
          "establishment"
        ]
      },
      {
        "name": "Sivaram stores",
        "address": "D-51, West Thillai Nagar, Woraiyur, Tiruchirappalli",
        "latitude": 10.8232908,
        "longitude": 78.6823836,
        "rating": 4.5,
        "types": [
          "supermarket",
          "grocery_or_supermarket",
          "food",
          "point_of_interest",
          "store",
          "establishment"
        ]
      },
      {
        "name": "New Shopping Plus",
        "address": "Door No, Tiruchirapalli Rock Fort, 14, NSB Road, Tiruchirappalli",
        "latitude": 10.8265389,
        "longitude": 78.6946385,
        "rating": 4.3,
        "types": [
          "supermarket",
          "grocery_or_supermarket",
          "food",
          "point_of_interest",
          "store",
          "establishment"
        ]
      },
      {
        "name": "SRI RANGA Supermarket",
        "address": "4th Cross Road East, Tennur, Tiruchirappalli",
        "latitude": 10.8247879,
        "longitude": 78.6831241,
        "rating": 4.7,
        "types": [
          "supermarket",
          "grocery_or_supermarket",
          "food",
          "point_of_interest",
          "store",
          "establishment"
        ]
      },
      {
        "name": "Jayalaxami",
        "address": "Vivekanadha Puram, Bhima Nagar, Sangillyandapuram, Newra Road",
        "latitude": 10.8087991,
        "longitude": 78.6903366,
        "rating": 4.3,
        "types": [
          "supermarket",
          "grocery_or_supermarket",
          "food",
          "point_of_interest",
          "store",
          "establishment"
        ]
      },
      {
        "name": "Reliance SMART Point",
        "address": "Reliance Fresh Ltd , 65/10,Heber Road, 1, Bhima Nagar, Cantonment, Tiruchirappalli",
        "latitude": 10.8087754,
        "longitude": 78.6863362,
        "rating": 3.9,
        "types": [
          "grocery_or_supermarket",
          "convenience_store",
          "supermarket",
          "food",
          "point_of_interest",
          "store",
          "establishment"
        ]
      },
      {
        "name": "Nuts N Spices - Tiruchirappalli",
        "address": "ALSA COMPLEX, 75C/1, Salai Road, Thillai Nagar East, Tiruchirappalli",
        "latitude": 10.8270924,
        "longitude": 78.68405489999999,
        "rating": null,
        "types": [
          "supermarket",
          "grocery_or_supermarket",
          "food",
          "point_of_interest",
          "store",
          "establishment"
        ]
      },
      {
        "name": "ARUMUGAM STORES",
        "address": "1, Tiruchirappalli",
        "latitude": 10.815675,
        "longitude": 78.6794706,
        "rating": null,
        "types": [
          "supermarket",
          "grocery_or_supermarket",
          "food",
          "point_of_interest",
          "store",
          "establishment"
        ]
      },
      {
        "name": "Sujay Maligai Store & Water supply& Auto",
        "address": "42/7, Paruppukara Street, Palakarai, Tiruchirappalli",
        "latitude": 10.8087181,
        "longitude": 78.69717899999999,
        "rating": null,
        "types": [
          "supermarket",
          "grocery_or_supermarket",
          "food",
          "point_of_interest",
          "store",
          "establishment"
        ]
      },
      {
        "name": "SRI LAXMI TRADERS AND KANNAN OIL MILLS",
        "address": "Kabartan complex, balaiyam bazzar, -3, Ramlinga Nagar, Tiruchirappalli",
        "latitude": 10.8213857,
        "longitude": 78.6776897,
        "rating": 4,
        "types": [
          "supermarket",
          "grocery_or_supermarket",
          "food",
          "point_of_interest",
          "store",
          "establishment"
        ]
      },
      {
        "name": "New Kayal Super Stores",
        "address": "45, B Perumal kovil, Hi, near Palakkarai, Sannathi Street, Thuraiyur",
        "latitude": 10.8087379,
        "longitude": 78.6991524,
        "rating": 4.8,
        "types": [
          "supermarket",
          "department_store",
          "grocery_or_supermarket",
          "food",
          "point_of_interest",
          "store",
          "establishment"
        ]
      },
      {
        "name": "Reliance SMART Bazaar",
        "address": "Mangalam Towers, Reynolds Road, Cantonment, Tiruchirappalli",
        "latitude": 10.8070667,
        "longitude": 78.6816288,
        "rating": 4.1,
        "types": [
          "convenience_store",
          "supermarket",
          "grocery_or_supermarket",
          "home_goods_store",
          "food",
          "point_of_interest",
          "store",
          "health",
          "establishment"
        ]
      },
      {
        "name": "Viroch Mart",
        "address": "19, Palayam Bazaar Road, Woraiyur, Tiruchirappalli",
        "latitude": 10.8232628,
        "longitude": 78.67667399999999,
        "rating": 5,
        "types": [
          "supermarket",
          "grocery_or_supermarket",
          "food",
          "point_of_interest",
          "store",
          "establishment"
        ]
      },
      {
        "name": "Seedhanam Department Store,சீதனம் டிபார்ட்மெண்ட் ஸ்டோர்ஸ்",
        "address": "RMFG+RPJ, Palayam Bazar, Woraiyur, Tiruchirappalli",
        "latitude": 10.8245929,
        "longitude": 78.676778,
        "rating": 4.2,
        "types": [
          "supermarket",
          "grocery_or_supermarket",
          "food",
          "point_of_interest",
          "store",
          "establishment"
        ]
      },
      {
        "name": "Shree Renga Supermarket",
        "address": "No. 4, PNB Towers, East Andal Street, Theppakulam",
        "latitude": 10.8299145,
        "longitude": 78.6999252,
        "rating": 4.2,
        "types": [
          "supermarket",
          "grocery_or_supermarket",
          "food",
          "point_of_interest",
          "store",
          "establishment"
        ]
      },
      {
        "name": "PATANJALI PANJABOOTHA SUPER MARKET,PALAKKARAI,KAJAPEET",
        "address": "24/5,POONTHOTTAM,PALAKKARAI, KAJAPET",
        "latitude": 10.8043464,
        "longitude": 78.6961863,
        "rating": 4,
        "types": [
          "supermarket",
          "grocery_or_supermarket",
          "food",
          "point_of_interest",
          "store",
          "establishment"
        ]
      },
      {
        "name": "Thangam Engineering and Enterprises",
        "address": "M10, Mezzanine Floor, JC Tower, Karur Bypass Road, Woraiyur, Tiruchirappalli",
        "latitude": 10.8342144,
        "longitude": 78.6910017,
        "rating": 2.8,
        "types": [
          "supermarket",
          "grocery_or_supermarket",
          "food",
          "point_of_interest",
          "store",
          "establishment"
        ]
      },
      {
        "name": "Shopko Department store",
        "address": "53, daman tower, Palayam Bazaar Road, Woraiyur, Tiruchirappalli",
        "latitude": 10.8272895,
        "longitude": 78.6768682,
        "rating": 4.8,
        "types": [
          "department_store",
          "supermarket",
          "grocery_or_supermarket",
          "food",
          "point_of_interest",
          "store",
          "establishment"
        ]
      },
      {
        "name": "GANDHIRAM MALIGAI",
        "address": "22,Jeeva Prabathkarillam Meladevathanam Street, Tiruchirappalli",
        "latitude": 10.8304855,
        "longitude": 78.7012311,
        "rating": null,
        "types": [
          "supermarket",
          "grocery_or_supermarket",
          "food",
          "point_of_interest",
          "store",
          "establishment"
        ]
      },
      {
        "name": "Shri Shakti Super Market",
        "address": "24, Kadaiveethe, Bus Stop, Salai Road, Woraiyur, Tiruchirappalli",
        "latitude": 10.8278907,
        "longitude": 78.6763395,
        "rating": 5,
        "types": [
          "supermarket",
          "grocery_or_supermarket",
          "food",
          "point_of_interest",
          "store",
          "establishment"
        ]
      },
      {
        "name": "Sri Vaari Super Market",
        "address": "RMPV+6F6, Old Karur Road, Melachinthamani, Tiruchirappalli",
        "latitude": 10.8355393,
        "longitude": 78.69362699999999,
        "rating": 4.9,
        "types": [
          "supermarket",
          "grocery_or_supermarket",
          "food",
          "point_of_interest",
          "store",
          "establishment"
        ]
      }
    ],
    "atm": [
      {
        "name": "SBI",
        "address": "24 baba towers, Thennur High Road, Tiruchirappalli",
        "latitude": 10.8184979,
        "longitude": 78.6887215,
        "rating": 2.4,
        "types": [
          "atm",
          "bank",
          "finance",
          "point_of_interest",
          "establishment"
        ]
      },
      {
        "name": "TMB Bank ATM",
        "address": "RM9W+CQF, Big Bazaar Street, Tharanallur, Tiruchirappalli",
        "latitude": 10.8185683,
        "longitude": 78.6969239,
        "rating": 5,
        "types": [
          "atm",
          "finance",
          "point_of_interest",
          "establishment"
        ]
      },
      {
        "name": "State Bank ATM",
        "address": "No.34, Chinna Kadai Street, Devathanam, Tiruchirappalli",
        "latitude": 10.82561,
        "longitude": 78.699499,
        "rating": 2.5,
        "types": [
          "atm",
          "finance",
          "point_of_interest",
          "establishment"
        ]
      },
      {
        "name": "SBI ATM Thennur",
        "address": "C-87, Shastri Road, Tennur, Tiruchirappalli",
        "latitude": 10.8186323,
        "longitude": 78.68871250000001,
        "rating": 4.3,
        "types": [
          "atm",
          "finance",
          "point_of_interest",
          "establishment"
        ]
      },
      {
        "name": "IOB ATM",
        "address": "RM9M+JF7, Thillai Nagar Main Road, Srinivasapuram, Tennur, Tiruchirappalli",
        "latitude": 10.8190343,
        "longitude": 78.68367529999999,
        "rating": 4,
        "types": [
          "atm",
          "finance",
          "point_of_interest",
          "establishment"
        ]
      },
      {
        "name": "Punjab National Bank ATM",
        "address": "RMFV+P8W, W.B. Road, Tiruchirappalli",
        "latitude": 10.824358,
        "longitude": 78.693343,
        "rating": 4.3,
        "types": [
          "atm",
          "finance",
          "point_of_interest",
          "establishment"
        ]
      },
      {
        "name": "ICICI Bank ATM",
        "address": "RMFV+M88, near Michael and sons ice cream and cool drinks, NH 45A, Devathanam, Tiruchirappalli",
        "latitude": 10.8241697,
        "longitude": 78.6933303,
        "rating": 2.5,
        "types": [
          "atm",
          "finance",
          "point_of_interest",
          "establishment"
        ]
      },
      {
        "name": "Union Bank ATM",
        "address": "534, 66, West Boulevard Road, Tharanallur, Tiruchirappalli",
        "latitude": 10.820281,
        "longitude": 78.6938828,
        "rating": 3,
        "types": [
          "atm",
          "finance",
          "point_of_interest",
          "establishment"
        ]
      },
      {
        "name": "SBI ATM",
        "address": "36, West Boulevard Road, Singarathope, Tharanallur, Tiruchirappalli",
        "latitude": 10.8241334,
        "longitude": 78.6936468,
        "rating": 4.8,
        "types": [
          "atm",
          "finance",
          "point_of_interest",
          "establishment"
        ]
      },
      {
        "name": "State Bank ATM",
        "address": "RM5P+CVX, Heber Road, Tiruchirappalli",
        "latitude": 10.808605,
        "longitude": 78.687247,
        "rating": 2.7,
        "types": [
          "atm",
          "finance",
          "point_of_interest",
          "establishment"
        ]
      },
      {
        "name": "City Union Bank ATM",
        "address": "RMJV+599, College Road, Teppakulam",
        "latitude": 10.8304059,
        "longitude": 78.6934938,
        "rating": 3.8,
        "types": [
          "atm",
          "finance",
          "point_of_interest",
          "establishment"
        ]
      },
      {
        "name": "CANARA BANK ATM",
        "address": "PB NO : 354, VENKATESA MALIGAI, 26 NANDIKOIL STREET, Theppakulam",
        "latitude": 10.8274892,
        "longitude": 78.6948097,
        "rating": 3.5,
        "types": [
          "atm",
          "finance",
          "point_of_interest",
          "establishment"
        ]
      },
      {
        "name": "Dhanlaxmi Bank ATM",
        "address": "RM9W+RP8, Big Bazaar Street, Tharanallur, Tiruchirappalli",
        "latitude": 10.8195463,
        "longitude": 78.69681270000001,
        "rating": 3,
        "types": [
          "atm",
          "finance",
          "point_of_interest",
          "establishment"
        ]
      },
      {
        "name": "ICICI ATM",
        "address": "RM9M+9FW, Thillai Nagar Main Road, Srinivasapuram, Thillai Nagar, Tiruchirappalli",
        "latitude": 10.8184844,
        "longitude": 78.6836907,
        "rating": 2.9,
        "types": [
          "atm",
          "finance",
          "point_of_interest",
          "establishment"
        ]
      },
      {
        "name": "Karur Vysya Bank ATM",
        "address": "RM9M+F9V, MS Mani Road, Thillai Nagar, Tiruchirappalli",
        "latitude": 10.8187311,
        "longitude": 78.6834145,
        "rating": 3.8,
        "types": [
          "atm",
          "finance",
          "point_of_interest",
          "establishment"
        ]
      },
      {
        "name": "Indian Overseas Bank ATM",
        "address": "RMCV+6H4, West Boulevard Road, Tharanallur, Tiruchirappalli",
        "latitude": 10.8205053,
        "longitude": 78.6939419,
        "rating": 3.5,
        "types": [
          "atm",
          "finance",
          "point_of_interest",
          "establishment"
        ]
      },
      {
        "name": "HDFC Bank ATM",
        "address": "No 51/99, Sivam Towers, opposite Devar Hall, West Boulevard Road, Tiruchirappalli",
        "latitude": 10.8217793,
        "longitude": 78.69367129999999,
        "rating": 4.5,
        "types": [
          "atm",
          "finance",
          "point_of_interest",
          "establishment"
        ]
      },
      {
        "name": "Indian Overseas Bank ATM",
        "address": "RM8J+PP8, Bishop Road, Anna Nagar, Tennur, Tiruchirappalli",
        "latitude": 10.8167957,
        "longitude": 78.68181419999999,
        "rating": 4,
        "types": [
          "atm",
          "finance",
          "point_of_interest",
          "establishment"
        ]
      },
      {
        "name": "Tamilnad Mercantile Bank Ltd ATM",
        "address": "207-B, Big Bazaar Street, Tharanallur, Tiruchirappalli",
        "latitude": 10.8185172,
        "longitude": 78.696911,
        "rating": null,
        "types": [
          "atm",
          "bank",
          "finance",
          "point_of_interest",
          "establishment"
        ]
      },
      {
        "name": "IndusInd Bank",
        "address": "New Block No.16 bearing Door No.9A 20th Street Presently, 11th Cross East Road, Thillai Nagar, Tiruchirappalli",
        "latitude": 10.819627,
        "longitude": 78.6833498,
        "rating": 3.2,
        "types": [
          "bank",
          "atm",
          "finance",
          "point_of_interest",
          "establishment"
        ]
      },
      {
        "name": "SBI ATM (KMC)",
        "address": "59, Bishop Road, Puthur, Thillai Nagar, Tiruchirappalli",
        "latitude": 10.815741,
        "longitude": 78.67981619999999,
        "rating": null,
        "types": [
          "atm",
          "point_of_interest",
          "finance",
          "establishment"
        ]
      },
      {
        "name": "LVB Bank ATM",
        "address": "RMCW+GPQ, Big Bazaar Street, Singarathope, Tharanallur, Tiruchirappalli",
        "latitude": 10.821338,
        "longitude": 78.6968742,
        "rating": null,
        "types": [
          "atm",
          "point_of_interest",
          "finance",
          "establishment"
        ]
      },
      {
        "name": "Axis Bank ATM",
        "address": "No 75E/1 Thillai Nagar Near, West Thillai Nagar, Arch, Tiruchirappalli",
        "latitude": 10.818169,
        "longitude": 78.68279799999999,
        "rating": 2,
        "types": [
          "atm",
          "bank",
          "point_of_interest",
          "finance",
          "establishment"
        ]
      },
      {
        "name": "Tamilnad Mercantile Bank",
        "address": "No.209, Palakkarai Main Road, Tiruchirappalli",
        "latitude": 10.8137862,
        "longitude": 78.6965012,
        "rating": 3.9,
        "types": [
          "atm",
          "bank",
          "point_of_interest",
          "finance",
          "establishment"
        ]
      },
      {
        "name": "TMB ATM",
        "address": "175, Quaide Millath Rd, Malligaipuram Thottam, Palakarai, Palakkarai, Quaide Millath Road, Malligaipuram Thottam, Palakarai, Palakkarai, Tiruchirappalli",
        "latitude": 10.8136853,
        "longitude": 78.69646759999999,
        "rating": null,
        "types": [
          "atm",
          "point_of_interest",
          "finance",
          "establishment"
        ]
      },
      {
        "name": "Union Bank of India ATM",
        "address": "1/13 1, 14, Salai Road, Woraiyur, Tiruchirappalli",
        "latitude": 10.8223737,
        "longitude": 78.682527,
        "rating": 3,
        "types": [
          "atm",
          "point_of_interest",
          "finance",
          "establishment"
        ]
      },
      {
        "name": "State Bank Of India ATM",
        "address": "28/1, Pattabiraman Salai, Anna Nagar, Tennur, Tiruchirappalli",
        "latitude": 10.8138878,
        "longitude": 78.6820868,
        "rating": null,
        "types": [
          "atm",
          "point_of_interest",
          "finance",
          "establishment"
        ]
      },
      {
        "name": "DCB Bank ATM - Tiruchirapalli",
        "address": "nearby Tulasi Pharmacy, No C 70, 4th Cross Road East, West Thillai Nagar, Tiruchirappalli",
        "latitude": 10.8246611,
        "longitude": 78.68297629999999,
        "rating": null,
        "types": [
          "atm",
          "point_of_interest",
          "finance",
          "establishment"
        ]
      },
      {
        "name": "SBI Intouch",
        "address": "Lakshmi Complex, No-143, Salai Road, Tiruchirappalli",
        "latitude": 10.8275062,
        "longitude": 78.6848351,
        "rating": 4,
        "types": [
          "atm",
          "bank",
          "point_of_interest",
          "finance",
          "establishment"
        ]
      },
      {
        "name": "Axis Bank ATM",
        "address": "near Indian Bank, 104, Thanjavur Road, Tharanallur, Tiruchirappalli",
        "latitude": 10.8148828,
        "longitude": 78.6999572,
        "rating": 4,
        "types": [
          "atm",
          "bank",
          "point_of_interest",
          "finance",
          "establishment"
        ]
      },
      {
        "name": "Andhra Bank ATM",
        "address": "Lakshmi Complex, 73/B-I, Salai Road, Thillai Nagar East, Tiruchirappalli",
        "latitude": 10.8272234,
        "longitude": 78.6848564,
        "rating": 1,
        "types": [
          "atm",
          "point_of_interest",
          "finance",
          "establishment"
        ]
      },
      {
        "name": "SBI ATM",
        "address": "63, Bishop Road, Puthur, Tennur, Tiruchirappalli",
        "latitude": 10.8157286,
        "longitude": 78.67962229999999,
        "rating": 3.3,
        "types": [
          "atm",
          "point_of_interest",
          "finance",
          "establishment"
        ]
      },
      {
        "name": "Bandhan Bank ATM",
        "address": "RMGM+R84, Woraiyur, Tiruchirappalli",
        "latitude": 10.8270091,
        "longitude": 78.68333059999999,
        "rating": 5,
        "types": [
          "atm",
          "point_of_interest",
          "finance",
          "establishment"
        ]
      },
      {
        "name": "SBI ATM",
        "address": "RM4R+W63, Melakarikara Street, Bhima Nagar, Sangillyandapuram, Tiruchirappalli",
        "latitude": 10.807267,
        "longitude": 78.69053509999999,
        "rating": 3.5,
        "types": [
          "atm",
          "point_of_interest",
          "finance",
          "establishment"
        ]
      },
      {
        "name": "Union Bank Of India ATM",
        "address": "RMGX+H86, Chinna Kadai Street, Tiruchirappalli",
        "latitude": 10.8264219,
        "longitude": 78.69828,
        "rating": 2.3,
        "types": [
          "atm",
          "point_of_interest",
          "finance",
          "establishment"
        ]
      },
      {
        "name": "State Bank Of India ATM",
        "address": "10th Cross St, Thennur, Tiruchirappalli",
        "latitude": 10.8201839,
        "longitude": 78.6787793,
        "rating": 2.8,
        "types": [
          "atm",
          "point_of_interest",
          "finance",
          "establishment"
        ]
      },
      {
        "name": "State Bank ATM",
        "address": "RM5W+36F, East Coast Road, Palakarai, Sangillyandapuram, Tiruchirappalli",
        "latitude": 10.8076899,
        "longitude": 78.695539,
        "rating": 3.8,
        "types": [
          "atm",
          "point_of_interest",
          "finance",
          "establishment"
        ]
      },
      {
        "name": "CANARA BANK ATM",
        "address": "BUILDING, POST BOX NO: 604, ANBAGAM, Puthur High Road, Tiruchirappalli",
        "latitude": 10.8155121,
        "longitude": 78.6775255,
        "rating": 4.7,
        "types": [
          "atm",
          "point_of_interest",
          "finance",
          "establishment"
        ]
      },
      {
        "name": "Punjab National Bank ATM",
        "address": "bus stand, MSSG Complex College Road Near Chattiram, Tiruchirappalli",
        "latitude": 10.831552,
        "longitude": 78.6940525,
        "rating": 3,
        "types": [
          "atm",
          "point_of_interest",
          "finance",
          "establishment"
        ]
      },
      {
        "name": "Karur Vysya Bank ATM",
        "address": "RM4V+GVR, Palakkarai Main Road, Palakarai, Sangillyandapuram, Tiruchirappalli",
        "latitude": 10.8063566,
        "longitude": 78.69463209999999,
        "rating": 4.5,
        "types": [
          "atm",
          "point_of_interest",
          "finance",
          "establishment"
        ]
      },
      {
        "name": "City Union Bank Cantonment",
        "address": "No.98, Ground Floor, MSD Plaza, Bharathidasan Salai, Tiruchirappalli",
        "latitude": 10.8075775,
        "longitude": 78.68321859999999,
        "rating": 3.8,
        "types": [
          "bank",
          "atm",
          "finance",
          "point_of_interest",
          "establishment"
        ]
      },
      {
        "name": "Karur Vysya Bank ATM",
        "address": "24, Kaliyamman Kovil Street, Chinthamani, Tiruchirappalli",
        "latitude": 10.830658,
        "longitude": 78.69482119999999,
        "rating": 4.8,
        "types": [
          "atm",
          "finance",
          "point_of_interest",
          "establishment"
        ]
      },
      {
        "name": "CUB ATM",
        "address": "RM4M+W7V, Bharathidasan Salai, Tiruchirappalli",
        "latitude": 10.8073729,
        "longitude": 78.6831651,
        "rating": 4,
        "types": [
          "atm",
          "finance",
          "point_of_interest",
          "establishment"
        ]
      },
      {
        "name": "City Union Bank ATM",
        "address": "Shop No. 23, Chintamani Market, Kaliyamman Kovil Street, Tiruchirappalli",
        "latitude": 10.8310238,
        "longitude": 78.6947315,
        "rating": 2.5,
        "types": [
          "atm",
          "finance",
          "point_of_interest",
          "establishment"
        ]
      },
      {
        "name": "HDFC Bank ATM",
        "address": "No 2, Ground Floor, MSG Complex, bus stand, Chatram, Tiruchirappalli",
        "latitude": 10.8313084,
        "longitude": 78.69390829999999,
        "rating": 3,
        "types": [
          "atm",
          "finance",
          "point_of_interest",
          "establishment"
        ]
      },
      {
        "name": "Federal Bank ATM",
        "address": "RMJV+JJ2, Melachinthamani, Tiruchirappalli",
        "latitude": 10.8315233,
        "longitude": 78.6940309,
        "rating": 5,
        "types": [
          "atm",
          "finance",
          "point_of_interest",
          "establishment"
        ]
      },
      {
        "name": "SBI ATM & CDM",
        "address": "RMCG+3G8, KINGSTONPARK, First Main Road, Tiruchirappalli",
        "latitude": 10.8201679,
        "longitude": 78.6763278,
        "rating": 3.7,
        "types": [
          "atm",
          "finance",
          "point_of_interest",
          "establishment"
        ]
      },
      {
        "name": "Dena Bank ATM",
        "address": "RMJV+PV9, Nandhi Koil Street, Teppakulam",
        "latitude": 10.8317951,
        "longitude": 78.69473169999999,
        "rating": 5,
        "types": [
          "atm",
          "finance",
          "point_of_interest",
          "establishment"
        ]
      },
      {
        "name": "SBI ATM",
        "address": "1, Nandhi Koil Street, Melachinthamani, Tiruchirappalli",
        "latitude": 10.8321135,
        "longitude": 78.6946701,
        "rating": 3.3,
        "types": [
          "atm",
          "finance",
          "point_of_interest",
          "establishment"
        ]
      },
      {
        "name": "SBI",
        "address": "RMFG+RP4, Palayam Bazaar Road, South Ramalinga Nagar, Tiruchirappalli",
        "latitude": 10.8245175,
        "longitude": 78.6768266,
        "rating": null,
        "types": [
          "atm",
          "finance",
          "point_of_interest",
          "establishment"
        ]
      },
      {
        "name": "Tamilnad Mercantile Bank Ltd ATM",
        "address": "near Narasu Pillai lane, No.32, North Andar Street,, near Narasu Pillai lane, Tiruchirappalli",
        "latitude": 10.8314449,
        "longitude": 78.69760649999999,
        "rating": 5,
        "types": [
          "atm",
          "finance",
          "point_of_interest",
          "establishment"
        ]
      },
      {
        "name": "Indian Overseas Bank",
        "address": "Shop No, 76B, Palayam Bazaar Road, Palayam Bazar, Woraiyur, Tiruchirappalli",
        "latitude": 10.825412,
        "longitude": 78.676906,
        "rating": 3.9,
        "types": [
          "bank",
          "atm",
          "finance",
          "point_of_interest",
          "establishment"
        ]
      },
      {
        "name": "ICICI Bank",
        "address": "Ramalinga Nagar 1st Cross, Uraiyoor, Tiruchirappalli",
        "latitude": 10.8211026,
        "longitude": 78.6750682,
        "rating": 4,
        "types": [
          "atm",
          "finance",
          "point_of_interest",
          "establishment"
        ]
      },
      {
        "name": "CSB BANK LTD",
        "address": "No 56, St Annes Bldg, Madurai Road, Melapudur, Tiruchirappalli",
        "latitude": 10.8032964,
        "longitude": 78.6919877,
        "rating": 3.2,
        "types": [
          "bank",
          "atm",
          "finance",
          "point_of_interest",
          "establishment"
        ]
      },
      {
        "name": "CANARA BANK ATM",
        "address": "NO.7A, Salai Road, Woraiyur, Tiruchirappalli",
        "latitude": 10.8221566,
        "longitude": 78.67522,
        "rating": 4,
        "types": [
          "atm",
          "finance",
          "point_of_interest",
          "establishment"
        ]
      },
      {
        "name": "Union Bank Of India ATM",
        "address": "RMGG+XW9, Salai Road, Woraiyur, Tiruchirappalli",
        "latitude": 10.8274139,
        "longitude": 78.67734659999999,
        "rating": 2,
        "types": [
          "atm",
          "finance",
          "point_of_interest",
          "establishment"
        ]
      },
      {
        "name": "SBI ATM",
        "address": "RMFG+32J, Ramlinga Nagar, Woraiyur, Tiruchirappalli",
        "latitude": 10.8227069,
        "longitude": 78.67500000000001,
        "rating": 5,
        "types": [
          "atm",
          "finance",
          "point_of_interest",
          "establishment"
        ]
      },
      {
        "name": "City Union Bank - ATM",
        "address": "5E, Allithurai Road, Puthur, Bharthi Nagar, Tiruchirappalli",
        "latitude": 10.8138209,
        "longitude": 78.674239,
        "rating": 4,
        "types": [
          "atm",
          "finance",
          "point_of_interest",
          "establishment"
        ]
      },
      {
        "name": "LVB ATM",
        "address": "1, Alexandria Road, Cantonment, Tiruchirappalli",
        "latitude": 10.8031611,
        "longitude": 78.68407309999999,
        "rating": null,
        "types": [
          "atm",
          "finance",
          "point_of_interest",
          "establishment"
        ]
      },
      {
        "name": "Indian Overseas Bank ATM",
        "address": "5, Trichy Chennai Trunk Road, Melachinthamani, Tiruchirappalli",
        "latitude": 10.8344599,
        "longitude": 78.69424029999999,
        "rating": 3.8,
        "types": [
          "atm",
          "finance",
          "point_of_interest",
          "establishment"
        ]
      }
    ],
    "school": [
      {
        "name": "Pace Academy",
        "address": "#18/21, Sree Complex, D Block Madurai Road, Old Raja Theatre Complex, Tiruchirappalli",
        "latitude": 10.8192485,
        "longitude": 78.692515,
        "rating": 4.5,
        "types": [
          "school",
          "point_of_interest",
          "establishment"
        ]
      },
      {
        "name": "E-limitless",
        "address": "Flat G1,first floor A.R.A Towers,11th cross Thillainagar,18, Tiruchirappalli",
        "latitude": 10.8182041,
        "longitude": 78.6830432,
        "rating": 5,
        "types": [
          "school",
          "point_of_interest",
          "establishment"
        ]
      },
      {
        "name": "Nivedita Academy",
        "address": "opp. HP Petrol Bunk 8754002475, 29B, Rohan's Arcade, Third Floor, opp. HP Petrol Bunk 8754002475, Thillai Nagar Main Road, Tiruchirappalli",
        "latitude": 10.8211797,
        "longitude": 78.6833327,
        "rating": 4.4,
        "types": [
          "local_government_office",
          "university",
          "school",
          "point_of_interest",
          "establishment"
        ]
      },
      {
        "name": "Trinetra Trichy Art Coaching",
        "address": "123,C, 5th Cross Road East, Tennur, Tiruchirappalli",
        "latitude": 10.8237743,
        "longitude": 78.68384019999999,
        "rating": 4.7,
        "types": [
          "store",
          "school",
          "point_of_interest",
          "establishment"
        ]
      },
      {
        "name": "KIDS PLANET , Pre Primary School",
        "address": "next to Thulasi pharmacy, C61, 4th Cross Road West, Thillai Nagar, Tiruchirappalli",
        "latitude": 10.8248122,
        "longitude": 78.6825439,
        "rating": 5,
        "types": [
          "school",
          "point_of_interest",
          "establishment"
        ]
      },
      {
        "name": "Whiz Kidzz Academy",
        "address": "near BSNL Exchange Office, C-50/1, 9th A West Cross, Thillai Nagar, Tiruchirappalli",
        "latitude": 10.8235117,
        "longitude": 78.6810137,
        "rating": 4,
        "types": [
          "school",
          "point_of_interest",
          "establishment"
        ]
      },
      {
        "name": "Success Educational Institutions tuition centre in trichy",
        "address": "No.,South Yadhava St, Main, 67, Melakarikara Street, Bhima Nagar, Tiruchirappalli",
        "latitude": 10.8059922,
        "longitude": 78.69023659999999,
        "rating": 4.5,
        "types": [
          "school",
          "point_of_interest",
          "establishment"
        ]
      },
      {
        "name": "Sri Ramakrishna School",
        "address": "RM9G+XMJ, Salai Road, Anjeneyapuram, Ramlinga Nagar, Tennur, Tiruchirappalli",
        "latitude": 10.8199722,
        "longitude": 78.67664669999999,
        "rating": 4.2,
        "types": [
          "school",
          "point_of_interest",
          "establishment"
        ]
      },
      {
        "name": "Sri Jayendra Matric Higher Secondary School",
        "address": "Sri Vidya Ganapathy Nagar, Anantha Avenue, Maharani Theatre Road, Tiruchirappalli",
        "latitude": 10.8232165,
        "longitude": 78.7040533,
        "rating": 4,
        "types": [
          "school",
          "point_of_interest",
          "establishment"
        ]
      },
      {
        "name": "WISDOM MATH TUITION CENTRE",
        "address": "bus stand, opp. Ezhavadhu Pillayar temple, near chatram, 62, North Andar Street, Landmark:, Theppakulam",
        "latitude": 10.8299025,
        "longitude": 78.6975569,
        "rating": 4.9,
        "types": [
          "school",
          "point_of_interest",
          "establishment"
        ]
      },
      {
        "name": "Gnanam English Kenthira",
        "address": "Tiruchirappalli",
        "latitude": 10.8315179,
        "longitude": 78.6943234,
        "rating": 4.6,
        "types": [
          "school",
          "point_of_interest",
          "establishment"
        ]
      },
      {
        "name": "Jessie School",
        "address": "620017, Puthur, Thillai Nagar, Tiruchirappalli",
        "latitude": 10.8192479,
        "longitude": 78.67635419999999,
        "rating": 3.8,
        "types": [
          "school",
          "point_of_interest",
          "establishment"
        ]
      },
      {
        "name": "Thangam Driving School",
        "address": "E block, housing unit, Salai Road, Woraiyur, Tiruchirappalli",
        "latitude": 10.8281933,
        "longitude": 78.679951,
        "rating": 4.8,
        "types": [
          "school",
          "point_of_interest",
          "establishment"
        ]
      },
      {
        "name": "Dhanalakshmi Srinivasan Matric. Hr. Sec. School",
        "address": "Salai Road, Annamalai Nagar, Woraiyur, Tiruchirappalli",
        "latitude": 10.830585,
        "longitude": 78.68188359999999,
        "rating": 3.9,
        "types": [
          "school",
          "point_of_interest",
          "establishment"
        ]
      },
      {
        "name": "KAMAKOTI VIDYALAYA",
        "address": "RMJX+J2C, Sankaran Pillai Road, Tiruchirappalli",
        "latitude": 10.831572,
        "longitude": 78.6975279,
        "rating": 4.4,
        "types": [
          "secondary_school",
          "school",
          "point_of_interest",
          "establishment"
        ]
      },
      {
        "name": "UDV Elementary School",
        "address": "RPH2+MJJ, Town Station Road, Devathanam, Tiruchirappalli",
        "latitude": 10.8292142,
        "longitude": 78.70152499999999,
        "rating": 2,
        "types": [
          "primary_school",
          "school",
          "point_of_interest",
          "establishment"
        ]
      },
      {
        "name": "A.K.K.V Aarunadu Matriculation Higher Secondary School",
        "address": "25, Salai Road Extension, Annamalai Nagar, Tiruchirappalli",
        "latitude": 10.8331081,
        "longitude": 78.6822421,
        "rating": 3.6,
        "types": [
          "school",
          "point_of_interest",
          "establishment"
        ]
      },
      {
        "name": "Campion Anglo-Indian Higher Secondary School, Tiruchirappalli",
        "address": "RM4M+6QV, opp. to Corporation office, Promenade Road, Cantonment, Tiruchirappalli",
        "latitude": 10.8056106,
        "longitude": 78.6844248,
        "rating": 4.7,
        "types": [
          "school",
          "point_of_interest",
          "establishment"
        ]
      },
      {
        "name": "Bishop Heber Higher Secondary School",
        "address": "West Boulevard Road, Singarathope, Tharanallur, Theppakulam",
        "latitude": 10.8256712,
        "longitude": 78.6935457,
        "rating": 4.4,
        "types": [
          "school",
          "point_of_interest",
          "establishment"
        ]
      },
      {
        "name": "மாநகராட்சி துவக்கப்பள்ளி",
        "address": "RM9R+G42, Tennur, Tiruchirappalli",
        "latitude": 10.8187637,
        "longitude": 78.6902568,
        "rating": 3,
        "types": [
          "primary_school",
          "school",
          "point_of_interest",
          "establishment"
        ]
      },
      {
        "name": "Mahatma Gandhi Centenary Vidyalaya",
        "address": "35, Thennur High Road, Anna Nagar, Tennur, Tiruchirappalli",
        "latitude": 10.818002,
        "longitude": 78.6884609,
        "rating": 4.3,
        "types": [
          "secondary_school",
          "school",
          "point_of_interest",
          "establishment"
        ]
      },
      {
        "name": "TRICHY TNPSC INSTITUTE-TTI",
        "address": "hindi prachar sabha, opposite to mahatmagandhi school, 7/4, Srinivasapuram, Tennur, Tiruchirappalli",
        "latitude": 10.8186479,
        "longitude": 78.6881466,
        "rating": 4.9,
        "types": [
          "police",
          "school",
          "point_of_interest",
          "establishment"
        ]
      },
      {
        "name": "RAJAJI VIDYALAYA",
        "address": "near Hindi prachara shaba, 35-B/73, Thennur High Road, Anna Nagar, Tiruchirappalli",
        "latitude": 10.8177419,
        "longitude": 78.688039,
        "rating": 4.3,
        "types": [
          "school",
          "point_of_interest",
          "establishment"
        ]
      },
      {
        "name": "CAD Training Center|Auto CAD|CATIA V5|UG NX|CREO|SOLID WORKS|REVERSE ENGINEERING|ANSYS|MECHANICAL FINAL YEAR PROJECT",
        "address": "10A/3, Radhakrishnan Colony, Shastri Road, Tennur, Tiruchirappalli",
        "latitude": 10.8190777,
        "longitude": 78.6879246,
        "rating": 4.9,
        "types": [
          "university",
          "school",
          "point_of_interest",
          "establishment"
        ]
      },
      {
        "name": "Almaa Lucent Nursery & Primary School",
        "address": "RM8R+8F5, Thennur Road, Tiruchirappalli",
        "latitude": 10.815762,
        "longitude": 78.6912289,
        "rating": 5,
        "types": [
          "primary_school",
          "school",
          "point_of_interest",
          "establishment"
        ]
      },
      {
        "name": "Primary health centre",
        "address": "116, Madurai Road, Marakadai, Anna Nagar, Tharanallur, Tiruchirappalli",
        "latitude": 10.817037,
        "longitude": 78.6930119,
        "rating": null,
        "types": [
          "school",
          "point_of_interest",
          "establishment"
        ]
      },
      {
        "name": "Zenith School",
        "address": "Shastri Road, Thillai Nagar, Thillai Nagar, Tiruchirappalli",
        "latitude": 10.8209877,
        "longitude": 78.68791089999999,
        "rating": 5,
        "types": [
          "school",
          "point_of_interest",
          "establishment"
        ]
      },
      {
        "name": "Government Syed Murthuza Higher Secondary School",
        "address": "168, Madurai Road, Palakarai, Sangillyandapuram, Tiruchirappalli",
        "latitude": 10.816094,
        "longitude": 78.6933619,
        "rating": 4.6,
        "types": [
          "school",
          "point_of_interest",
          "establishment"
        ]
      },
      {
        "name": "Municipal Urdu school, madurai road",
        "address": "RMCV+994, Ibrahim Park Street, Tharanallur, Tiruchirappalli",
        "latitude": 10.8208147,
        "longitude": 78.6934805,
        "rating": null,
        "types": [
          "primary_school",
          "school",
          "point_of_interest",
          "establishment"
        ]
      },
      {
        "name": "Rls Academy",
        "address": "No. 65 C, 11th Cross East Road, Thillai Nagar, Tiruchirappalli",
        "latitude": 10.8194275,
        "longitude": 78.68611969999999,
        "rating": null,
        "types": [
          "school",
          "point_of_interest",
          "establishment"
        ]
      },
      {
        "name": "Pink Fitness - Ladies Gym Trichy",
        "address": "B7, Green's Avenue, 1st Cross Road, North East Extension, Thillai Nagar, Tiruchirappalli",
        "latitude": 10.8262978,
        "longitude": 78.68670209999999,
        "rating": 4.8,
        "types": [
          "gym",
          "physiotherapist",
          "school",
          "point_of_interest",
          "health",
          "establishment"
        ]
      },
      {
        "name": "Subbiah School",
        "address": "RM9P+48W, Bishop Road, Srinivasapuram, Tennur, Tiruchirappalli",
        "latitude": 10.8178666,
        "longitude": 78.6858376,
        "rating": 4.4,
        "types": [
          "school",
          "point_of_interest",
          "establishment"
        ]
      },
      {
        "name": "IDEAS BEE",
        "address": "83 N / 30 O, Nadu Gujili Street, Tharanallur, Tiruchirappalli",
        "latitude": 10.8202778,
        "longitude": 78.6943797,
        "rating": 4.6,
        "types": [
          "clothing_store",
          "school",
          "point_of_interest",
          "store",
          "health",
          "establishment"
        ]
      },
      {
        "name": "Centre For Social And Technological Development(CSTD)",
        "address": "A53, KKS Flats, A 21, Park View Street, Anna Nagar, Tennur, Tiruchirappalli",
        "latitude": 10.815045,
        "longitude": 78.686813,
        "rating": null,
        "types": [
          "school",
          "point_of_interest",
          "establishment"
        ]
      },
      {
        "name": "The Dolphin Special School & Centre",
        "address": "11, Ram Nagar, 7th Cross Road East, Thillai Nagar, Tiruchirappalli",
        "latitude": 10.821328,
        "longitude": 78.6863477,
        "rating": 4.8,
        "types": [
          "school",
          "point_of_interest",
          "establishment"
        ]
      },
      {
        "name": "Happy Kids Play Home",
        "address": "8/26-A, Sundardas Tank Street, Tiruchirappalli",
        "latitude": 10.8213449,
        "longitude": 78.694305,
        "rating": 4.5,
        "types": [
          "school",
          "point_of_interest",
          "establishment"
        ]
      },
      {
        "name": "Sri Patel & Co ( ஸ்ரீ படேல் & கோ )",
        "address": "Kaliyamman Kovil back side, near Big Kammala Street, 11/2, Nadu Kallu Kara Street, Tiruchirappalli",
        "latitude": 10.8172946,
        "longitude": 78.69521130000001,
        "rating": 4.7,
        "types": [
          "university",
          "school",
          "lawyer",
          "food",
          "point_of_interest",
          "store",
          "establishment"
        ]
      },
      {
        "name": "Karthik Binding Works",
        "address": "7/1 Kaval Kara, Street, Tennur, Tiruchirappalli",
        "latitude": 10.8170216,
        "longitude": 78.6852967,
        "rating": null,
        "types": [
          "school",
          "point_of_interest",
          "establishment"
        ]
      },
      {
        "name": "Siva sakthi Academy(Dance / Musical / Beautician courses)",
        "address": "47, big chetty St, Tiruchirappalli, 8 / C 48, 4, th cross, Thillai Nagar, Tiruchirappalli",
        "latitude": 10.8192988,
        "longitude": 78.6955519,
        "rating": 5,
        "types": [
          "school",
          "point_of_interest",
          "establishment"
        ]
      },
      {
        "name": "Aksharhaa Kids Care",
        "address": "47, Big Chetty Street, Tharanallur, Tiruchirappalli",
        "latitude": 10.8192988,
        "longitude": 78.6955519,
        "rating": 5,
        "types": [
          "school",
          "point_of_interest",
          "establishment"
        ]
      },
      {
        "name": "Fig Tree, Early Learning Centre (Pre School) - The Best International Preschool in Trichy with Global Educational Practices",
        "address": "D252, 2nd Cross, Anna Nagar, Tennur, Tiruchirappalli",
        "latitude": 10.8155688,
        "longitude": 78.68562829999999,
        "rating": 4.9,
        "types": [
          "school",
          "point_of_interest",
          "establishment"
        ]
      },
      {
        "name": "Indian School for Modern Languages-Tiruchirappalli",
        "address": "D73 ,2nd Floor, 7th Cross Road East, Thillai Nagar, Tiruchirappalli",
        "latitude": 10.8225548,
        "longitude": 78.6867694,
        "rating": 4.7,
        "types": [
          "school",
          "point_of_interest",
          "establishment"
        ]
      },
      {
        "name": "Saroja Kasthuri Rangan Middle School",
        "address": "68, Big Chetty Street, Tiruchirappalli",
        "latitude": 10.8193045,
        "longitude": 78.6957051,
        "rating": 5,
        "types": [
          "school",
          "point_of_interest",
          "establishment"
        ]
      },
      {
        "name": "Fence Education Academy",
        "address": "No 41, 7th Cross Road East, Thillai Nagar, Tiruchirappalli",
        "latitude": 10.8224705,
        "longitude": 78.68656279999999,
        "rating": 3.3,
        "types": [
          "school",
          "point_of_interest",
          "establishment"
        ]
      },
      {
        "name": "Cresent primary school",
        "address": "RM7R+8W2, Kannadhasan Street, Hidayath Nagar, Anna Nagar, Thillai Nagar, Tiruchirappalli",
        "latitude": 10.8132706,
        "longitude": 78.6922512,
        "rating": 3,
        "types": [
          "primary_school",
          "school",
          "point_of_interest",
          "establishment"
        ]
      },
      {
        "name": "Oxford Nursery & Primary School",
        "address": "RM8W+73M, Palakarai, Sangillyandapuram, Tiruchirappalli",
        "latitude": 10.81571,
        "longitude": 78.6951794,
        "rating": 3,
        "types": [
          "primary_school",
          "school",
          "point_of_interest",
          "establishment"
        ]
      },
      {
        "name": "Indo Kiddzy Montessori Pre School Trichy Thillai Nagar, play School in trichy, pre school in trichy, kids School in trichy.",
        "address": "near Atma Hospital, 10 C Cross, near Atma Hospital, Tiruchirappalli",
        "latitude": 10.820314,
        "longitude": 78.6848012,
        "rating": 4.8,
        "types": [
          "primary_school",
          "school",
          "point_of_interest",
          "establishment"
        ]
      },
      {
        "name": "Y W C A Matriculation Higher Secondary School",
        "address": "10th Cross, Thillai Nagar, Thillai Nagar, Tiruchirappalli",
        "latitude": 10.8209473,
        "longitude": 78.6849958,
        "rating": 4.4,
        "types": [
          "school",
          "point_of_interest",
          "establishment"
        ]
      },
      {
        "name": "Social Aided School",
        "address": "RMCV+VVH, Gorikulam Lane, Singarathope, Devathanam, Tiruchirappalli",
        "latitude": 10.8221856,
        "longitude": 78.6947488,
        "rating": 5,
        "types": [
          "school",
          "point_of_interest",
          "establishment"
        ]
      },
      {
        "name": "Samuthrika Academy",
        "address": "11th Cross East Road, Extension, Thillai Nagar, Tiruchirappalli",
        "latitude": 10.8193126,
        "longitude": 78.684339,
        "rating": 4.9,
        "types": [
          "school",
          "point_of_interest",
          "establishment"
        ]
      },
      {
        "name": "Tiny Kids play home",
        "address": "Opposite Marriamman Kovil, Big Chetty Street & Nadu Gujili Street, Tiruchirappalli",
        "latitude": 10.8193766,
        "longitude": 78.69621939999999,
        "rating": 4.8,
        "types": [
          "school",
          "point_of_interest",
          "establishment"
        ]
      },
      {
        "name": "Anganwadi centre(ICDS) Vadavur",
        "address": "St Joseph College Area, 7B/1, 9th Cross Road East, Thillai Nagar East, Tiruchirappalli",
        "latitude": 10.8214969,
        "longitude": 78.684499,
        "rating": null,
        "types": [
          "school",
          "point_of_interest",
          "establishment"
        ]
      },
      {
        "name": "Vasantha Play School",
        "address": "9th Cross, Thillani Nagar, Tiruchirappalli",
        "latitude": 10.8219476,
        "longitude": 78.68470529999999,
        "rating": 1,
        "types": [
          "school",
          "point_of_interest",
          "establishment"
        ]
      },
      {
        "name": "Neram classroom trichy",
        "address": "RM8M+XC7, Tennur, Tiruchirappalli",
        "latitude": 10.8174064,
        "longitude": 78.683551,
        "rating": null,
        "types": [
          "school",
          "point_of_interest",
          "establishment"
        ]
      },
      {
        "name": "ICICI Academy for Skills",
        "address": "Lakshmi Arcade, 11th Cross West, Tennur, Tiruchirappalli",
        "latitude": 10.819201,
        "longitude": 78.68340189999999,
        "rating": 4.3,
        "types": [
          "school",
          "point_of_interest",
          "establishment"
        ]
      },
      {
        "name": "Ripples Music Centre",
        "address": "51, 35, Bishop Road, Tennur, Tiruchirappalli",
        "latitude": 10.817341,
        "longitude": 78.68329729999999,
        "rating": 5,
        "types": [
          "school",
          "point_of_interest",
          "establishment"
        ]
      },
      {
        "name": "Oil mill",
        "address": "Oil Mill Stop, to, Railway Colony Road, Vivek Nagar, Pappakurichi Kattur, Tiruchirappalli",
        "latitude": 10.8241215,
        "longitude": 78.694373,
        "rating": null,
        "types": [
          "school",
          "point_of_interest",
          "establishment"
        ]
      },
      {
        "name": "Fort Municipal Middle School- Kottai corporation middle school",
        "address": "172, Vellai Vetrilaikkara Street, Tharanallur, Tiruchirappalli",
        "latitude": 10.8194069,
        "longitude": 78.6973161,
        "rating": 4.7,
        "types": [
          "school",
          "point_of_interest",
          "establishment"
        ]
      },
      {
        "name": "Vasantha Tuition Centre",
        "address": "97, 9th Cross Road East, West Thillai Nagar, Thillai Nagar, Tiruchirappalli",
        "latitude": 10.8217658,
        "longitude": 78.6839616,
        "rating": 5,
        "types": [
          "school",
          "point_of_interest",
          "establishment"
        ]
      },
      {
        "name": "Prime Academy",
        "address": "No. B-10, First Floor, 11th Cross West, West Thillai Nagar, Tiruchirappalli",
        "latitude": 10.8179584,
        "longitude": 78.6830301,
        "rating": 4.4,
        "types": [
          "school",
          "point_of_interest",
          "establishment"
        ]
      }
    ]
  },
  "Cantonment": {
    "supermarket": [
      {
        "name": "Kumudham Department Store",
        "address": "Pla, Kanagu Tower, 11th Cross East Road, Tiruchirappalli",
        "latitude": 10.819233,
        "longitude": 78.6837639,
        "rating": 4.2,
        "types": [
          "supermarket",
          "department_store",
          "grocery_or_supermarket",
          "food",
          "point_of_interest",
          "store",
          "establishment"
        ]
      },
      {
        "name": "Chintamani Super Market",
        "address": "RMGV+HHG, NSB Road, Theppakulam",
        "latitude": 10.8264416,
        "longitude": 78.693968,
        "rating": 4,
        "types": [
          "supermarket",
          "grocery_or_supermarket",
          "food",
          "point_of_interest",
          "store",
          "establishment"
        ]
      },
      {
        "name": "New Shopping Plus",
        "address": "Door No, Tiruchirapalli Rock Fort, 14, NSB Road, Tiruchirappalli",
        "latitude": 10.8265389,
        "longitude": 78.6946385,
        "rating": 4.3,
        "types": [
          "supermarket",
          "grocery_or_supermarket",
          "food",
          "point_of_interest",
          "store",
          "establishment"
        ]
      },
      {
        "name": "thagamani Provisional Store",
        "address": "99, Pallivasal Ln, Singarathope, Tharanallur, Tiruchirappalli, Tamil Nadu 620008, Pallivasal Lane, Singarathope, Tharanallur, Tiruchirappalli",
        "latitude": 10.8225861,
        "longitude": 78.6951539,
        "rating": 4,
        "types": [
          "supermarket",
          "grocery_or_supermarket",
          "food",
          "point_of_interest",
          "store",
          "establishment"
        ]
      },
      {
        "name": "Shree Renga Supermarket",
        "address": "No. 4, PNB Towers, East Andal Street, Theppakulam",
        "latitude": 10.8299145,
        "longitude": 78.6999252,
        "rating": 4.2,
        "types": [
          "supermarket",
          "grocery_or_supermarket",
          "food",
          "point_of_interest",
          "store",
          "establishment"
        ]
      },
      {
        "name": "Thangam Engineering and Enterprises",
        "address": "M10, Mezzanine Floor, JC Tower, Karur Bypass Road, Woraiyur, Tiruchirappalli",
        "latitude": 10.8342144,
        "longitude": 78.6910017,
        "rating": 2.8,
        "types": [
          "supermarket",
          "grocery_or_supermarket",
          "food",
          "point_of_interest",
          "store",
          "establishment"
        ]
      },
      {
        "name": "Sri Vaari Super Market",
        "address": "RMPV+6F6, Old Karur Road, Melachinthamani, Tiruchirappalli",
        "latitude": 10.8355393,
        "longitude": 78.69362699999999,
        "rating": 4.9,
        "types": [
          "supermarket",
          "grocery_or_supermarket",
          "food",
          "point_of_interest",
          "store",
          "establishment"
        ]
      },
      {
        "name": "GANDHIRAM MALIGAI",
        "address": "22,Jeeva Prabathkarillam Meladevathanam Street, Tiruchirappalli",
        "latitude": 10.8304855,
        "longitude": 78.7012311,
        "rating": null,
        "types": [
          "supermarket",
          "grocery_or_supermarket",
          "food",
          "point_of_interest",
          "store",
          "establishment"
        ]
      },
      {
        "name": "Sri Guru Super Market",
        "address": "No 8, Star Avenue Arul plaza, Old Karur Road, Melachinthamani, Tiruchirappalli",
        "latitude": 10.8367551,
        "longitude": 78.68949219999999,
        "rating": 4.5,
        "types": [
          "supermarket",
          "grocery_or_supermarket",
          "food",
          "point_of_interest",
          "store",
          "establishment"
        ]
      },
      {
        "name": "Nuts N Spices - Tiruchirappalli",
        "address": "ALSA COMPLEX, 75C/1, Salai Road, Thillai Nagar East, Tiruchirappalli",
        "latitude": 10.8270924,
        "longitude": 78.68405489999999,
        "rating": null,
        "types": [
          "supermarket",
          "grocery_or_supermarket",
          "food",
          "point_of_interest",
          "store",
          "establishment"
        ]
      },