[
  {
    "name": "Cantonment Police Station",
    "address": "RM4M+X42, Benwells Rd, Sangillyandapuram, Tiruchirappalli, Tamil Nadu 620001",
    "latitude": 10.8073866,
    "longitude": 78.68277359999999
  },
  {
    "name": "Police Station",
    "address": "QMXJ+HCR, Cantonment, Tiruchirappalli, Tamil Nadu 620001",
    "latitude": 10.7989791,
    "longitude": 78.6810011
  },
  {
    "name": "Trichy City Center Police Station",
    "address": "Beat -32, Muthaliyar Chataram, Muthaliyar Street, Tiruchirappalli, Tamil Nadu 620001",
    "latitude": 10.8020326,
    "longitude": 78.69539639999999
  },
  {
    "name": "Srirangam Police Station",
    "address": "VM4Q+VWJ, Ammamandapam Rd, Srirangam, Tiruchirappalli, Tamil Nadu 620006",
    "latitude": 10.8572071,
    "longitude": 78.68976839999999
  },
  {
    "name": "Palakarai Police Station",
    "address": "RM4W+RVV, Palakarai, Sangillyandapuram, Tiruchirappalli, Tamil Nadu 620008",
    "latitude": 10.8071217,
    "longitude": 78.69717299999999
  },
  {
    "name": "Police Station Siruganur",
    "address": "Siruganur, Tiruchirappalli, NH-45, Trichy Chennai Highway, Trichy, Tiruchirapalli, Tamil Nadu 621105",
    "latitude": 11.015825,
    "longitude": 78.7951819
  },
  {
    "name": "Women Police Station",
    "address": "RM4M+X42, Bharathidasan Salai, Cantonment, Tiruchirappalli, Tamil Nadu 620001",
    "latitude": 10.8073953,
    "longitude": 78.68276379999999
  },
  {
    "name": "Airport Police Station",
    "address": "325 & 326, NH 210 to BHEL Officer's City, Thirunagar, Tiruchirappalli, Tamil Nadu 620007",
    "latitude": 10.7587738,
    "longitude": 78.7077501
  },
  {
    "name": "Navalpattu Police Station",
    "address": "PQG6+7M3, Anna Nagar, Tiruchirappalli, Tamil Nadu 620026",
    "latitude": 10.7256681,
    "longitude": 78.76165619999999
  },
  {
    "name": "Police Check post",
    "address": "PPX6+HMP, National Highway 210, Pasumai Nagar, Tiruchirappalli, Tamil Nadu 620007",
    "latitude": 10.7489523,
    "longitude": 78.7117141
  },
  {
    "name": "Kottai Police Station Trichy",
    "address": "Park, 56, Kiladhar St, Singarathope, Tharanallur, Tiruchirappalli, Tamil Nadu 620002",
    "latitude": 10.8246797,
    "longitude": 78.6962782
  },
  {
    "name": "Police Station",
    "address": "RM2C+8MF, Raja Colony, Tiruchirappalli, Tamil Nadu 620001",
    "latitude": 10.8007573,
    "longitude": 78.6716766
  },
  {
    "name": "Edamalaipatti Pudur Police Station",
    "address": "QMJF+375, Madurai Main Rd, near Vinayagar Temple, Bharathi Nagar, Edamalaipatti Pudur, Tamil Nadu 620012",
    "latitude": 10.780106,
    "longitude": 78.67320769999999
  },
  {
    "name": "All Women Police Station",
    "address": "RMFW+QC7, Singarathope, Tharanallur, Tiruchirappalli, Tamil Nadu 620002",
    "latitude": 10.8244619,
    "longitude": 78.6960513
  },
  {
    "name": "C3 KK Nagar Police Station",
    "address": "89, Rajaram Rd, Near Vinayagar Temple, K K Nagar, Tiruchirappalli, Tamil Nadu 620021",
    "latitude": 10.7571216,
    "longitude": 78.68890119999999
  },
  {
    "name": "Police Station, Jeeyapuram",
    "address": "VJF2+2Q5, Jeeyapuram, Tamil Nadu 639101",
    "latitude": 10.8725144,
    "longitude": 78.6019889
  },
  {
    "name": "E-4 Police Station Thillai Nagar",
    "address": "RM9P+MH5, Srinivasapuram, Tennur, Tiruchirappalli, Tamil Nadu 620017",
    "latitude": 10.8191289,
    "longitude": 78.68649950000001
  },
  {
    "name": "Police Station",
    "address": "Beat No. 13, Kamarajar Rd, Mela Kalkamdar Kottai, Tiruchirappalli, Tamil Nadu 620011",
    "latitude": 10.7865443,
    "longitude": 78.73482469999999
  },
  {
    "name": "Session Court Police Station",
    "address": "63, Heber Rd, New Raja Colony, Bhima Nagar, Sangillyandapuram, Tiruchirappalli, Tamil Nadu 620001",
    "latitude": 10.808612,
    "longitude": 78.685014
  },
  {
    "name": "Cyber Crime Police Station Tiruchirappalli",
    "address": "bus stop, Pudukottai Main Rd, near Armed Police Campus, near Subramaniyapuram, Subramaniyapuram, Tiruchirappalli, Tamil Nadu 620020",
    "latitude": 10.7866428,
    "longitude": 78.69838589999999
  },
  {
    "name": "Railway police station",
    "address": "Bus Stop, Ponmalai Railway Station, Railway Colony, Tiruchirappalli, Tamil Nadu 620004",
    "latitude": 10.7910768,
    "longitude": 78.71226
  },
  {
    "name": "Somarasampettai Police Station",
    "address": "RJ8P+FM9, 3rd Cross, Vasan City, Somarasampettai, Tamil Nadu 620102",
    "latitude": 10.8161698,
    "longitude": 78.6367324
  },
  {
    "name": "Police Station",
    "address": "RP69+MR2, Ariyamangalam Area, Tiruchirappalli, Tamil Nadu 620010",
    "latitude": 10.8116376,
    "longitude": 78.7195133
  },
  {
    "name": "CITY POLICE OFFICE, TRICHY CITY",
    "address": "QPM2+95W, Ramanathapuram Rd, Sundarraj Nagar, Subramaniyapuram, Sangillyandapuram, Tiruchirappalli, Tamil Nadu 620020",
    "latitude": 10.7834952,
    "longitude": 78.70044109999999
  },
  {
    "name": "Fort Police Station",
    "address": "RMFW+QCP, Singarathope, Devathanam, Tiruchirappalli, Tamil Nadu 620002",
    "latitude": 10.8244564,
    "longitude": 78.6960656
  },
  {
    "name": "Woraiyur Police Station",
    "address": "RMGF+67J, Vandikara St, near overhead water tank, Ramlinga Nagar, Woraiyur, Tiruchirappalli, Tamil Nadu 620003",
    "latitude": 10.8256099,
    "longitude": 78.6731514
  },
  {
    "name": "Ariyamangalam Traffic Police Station",
    "address": "QMPP+2WF, Sangillyandapuram, Tiruchirappalli, Tamil Nadu 620020",
    "latitude": 10.7850569,
    "longitude": 78.6872879
  },
  {
    "name": "Inspector General Of Police (Central Zone)",
    "address": "QMPW+WMC, Kajamalai Colony, Edamalaipatti Pudur, Tiruchirappalli, Tamil Nadu 620023",
    "latitude": 10.7873106,
    "longitude": 78.6965756
  },
  {
    "name": "Thiruverumbur Police Station",
    "address": "QQJJ+GCR, NH-67, Ancillary Colony, Thiruverumbur, Tamil Nadu 620013",
    "latitude": 10.7813959,
    "longitude": 78.7809699
  },
  {
    "name": "Tennur Police Station",
    "address": "RM8M+Q29, Bishop Rd, Anna Nagar, Tennur, Tiruchirappalli, Tamil Nadu 620017",
    "latitude": 10.8169329,
    "longitude": 78.6826021
  },
  {
    "name": "Kollidam Police Station",
    "address": "VMJX+5R5, Bikshandarkoil, Tamil Nadu 621216",
    "latitude": 10.8803966,
    "longitude": 78.6996175
  },
  {
    "name": "Kollidam Palam Police Station",
    "address": "VPF5+P3J, Maruthi Nagar, Bikshandarkoil, Tamil Nadu 621216",
    "latitude": 10.8743255,
    "longitude": 78.7076366
  },
  {
    "name": "GH Police outpost",
    "address": "RM6H+WCC, Bharathidasan Salai, Thillai Nagar, Tiruchirappalli, Tamil Nadu 620017",
    "latitude": 10.8123179,
    "longitude": 78.6785299
  },
  {
    "name": "Office of The Assistant Commissioner of Police Cantonment Trichy",
    "address": "15C, McDonalds Rd, Melapudur, Cantonment, Tiruchirappalli, Tamil Nadu 620001",
    "latitude": 10.798624,
    "longitude": 78.682688
  },
  {
    "name": "Ponnagar police station",
    "address": "QMVG+2XM, Jaya Nagar Extension, Ponnagar Extension, Karumandapam, Tiruchirappalli, Tamil Nadu 620001",
    "latitude": 10.7925894,
    "longitude": 78.677407
  },
  {
    "name": "D3 ariyamangalam police station",
    "address": "01, 01, Ariyamangalam Area, Tiruchirappalli, Tamil Nadu 620010",
    "latitude": 10.8092055,
    "longitude": 78.7237636
  },
  {
    "name": "Police Booth - 6",
    "address": "QM99+J54, Srinivasa Nagar Rd, Edamalaipatti Pudur, Tamil Nadu 620012",
    "latitude": 10.769005,
    "longitude": 78.66796699999999
  },
  {
    "name": "Police Help Station",
    "address": "31, Kooni Bazar Main Rd, Palakarai, Bhima Nagar, Sangillyandapuram, Tiruchirappalli, Tamil Nadu 620001",
    "latitude": 10.806808,
    "longitude": 78.69226309999999
  },
  {
    "name": "Camp Office of DIG of Police",
    "address": "QMHR+HJV, Kaja Nagar, Edamalaipatti Pudur, Tiruchirappalli, Tamil Nadu 620023",
    "latitude": 10.7789934,
    "longitude": 78.6915585
  },
  {
    "name": "Gandhi Market PS & Crime DC Office",
    "address": "RM8V+9QF, Madurai Rd, Palakarai, Sangillyandapuram, Tiruchirappalli, Tamil Nadu 620008",
    "latitude": 10.8160392,
    "longitude": 78.6944444
  },
  {
    "name": "Police Station Ponmalai",
    "address": "QPH8+M9R, Tiruchirappalli, Tamil Nadu 620020",
    "latitude": 10.779249,
    "longitude": 78.71588969999999
  },
  {
    "name": "Office Of Commissioner Of Police",
    "address": "QPJ2+5CF, Pudukottai Main Rd, Opp Central Prison, Subramaniyapuram, Tiruchirappalli, Tamil Nadu 620023",
    "latitude": 10.7804398,
    "longitude": 78.70105769999999
  },
  {
    "name": "C3 Police Station",
    "address": "QJ45+WQF, Main Rd, Vannan Kovil Dindukal, N.Kutabattu, Ramji Nagar, Tiruchirappalli, Tamil Nadu 620019",
    "latitude": 10.7573616,
    "longitude": 78.60946229999999
  },
  {
    "name": "District Police Office",
    "address": "QMMX+WPH, Ramanathapuram Rd, Kajamalai Colony, Edamalaipatti Pudur, Tiruchirappalli, Tamil Nadu 620020",
    "latitude": 10.7848173,
    "longitude": 78.6993576
  },
  {
    "name": "\u0bae\u0b95\u0bb3\u0bbf\u0bb0\u0bcd \u0b95\u0bbe\u0bb5\u0bb2\u0bcd \u0ba8\u0bbf\u0bb2\u0bc8\u0baf\u0bae\u0bcd",
    "address": "QPH8+X4M, \u0baa\u0bca\u0ba9\u0bcd\u0bae\u0bb2\u0bc8\u0baa\u0bcd\u0baa\u0b9f\u0bcd\u0b9f\u0bbf \u0b9a\u0bbe\u0bb2\u0bc8, Ponmalaipatti, Thirunagar, Tiruchirappalli, Tamil Nadu 620004",
    "latitude": 10.7799628,
    "longitude": 78.7153064
  },
  {
    "name": "Government railway police station",
    "address": "QMVM+GXV, Bharathiyar Salai, Sangillyandapuram, Tiruchirappalli, Tamil Nadu 620001",
    "latitude": 10.7938647,
    "longitude": 78.6849122
  },
  {
    "name": "Thuvakudi Police Station",
    "address": "QR3F+24H, Coimbatore - Nagapattinam Hwy, Barakath Nagar, Thuvakudi, Tamil Nadu 620015",
    "latitude": 10.7525656,
    "longitude": 78.8228709
  },
  {
    "name": "Police Station Mathur",
    "address": "Mathur, Tiruchirappalli, NH210, Ramanathapuram Road, Trichy, Tiruchirapalli, Tamil Nadu 622515",
    "latitude": 10.6901882,
    "longitude": 78.7358258
  },
  {
    "name": "Police Booth",
    "address": "77, Heber Rd, New Raja Colony, Bhima Nagar, Sangillyandapuram, Tiruchirappalli, Tamil Nadu 620001",
    "latitude": 10.8087818,
    "longitude": 78.6894548
  },
  {
    "name": "City Crime Branch",
    "address": "RM5P+M3R, New Raja Colony, Bhima Nagar, Sangillyandapuram, Tiruchirappalli, Tamil Nadu 620001",
    "latitude": 10.8092265,
    "longitude": 78.68503
  },
  {
    "name": "Superintendent Of Police",
    "address": "QMMX+WH8, Ramanathapuram Rd, Kajamalai Colony, Pudukottai, Tiruchirappalli, Tamil Nadu 620020",
    "latitude": 10.7847596,
    "longitude": 78.69896229999999
  },
  {
    "name": "Police Station",
    "address": "VRG9+X3F, Near Taluk Office, Paramasivapuram, Lalgudi, Tamil Nadu 621703",
    "latitude": 10.8774398,
    "longitude": 78.8176788
  },
  {
    "name": "Police Beat",
    "address": "RM6R+GJF, Alwarthoppu, Tiruchirappalli, Tamil Nadu 620017",
    "latitude": 10.8112734,
    "longitude": 78.6915454
  },
  {
    "name": "Mannachanallur Police Station",
    "address": "WM6X+MR9, SH 62, Manachanallur, Tamil Nadu 621005",
    "latitude": 10.9116905,
    "longitude": 78.6995951
  },
  {
    "name": "Police Booth",
    "address": "RMJV+M8V, Nagapattinam - Coimbatore - Gundlupet Hwy, Melachinthamani, Tiruchirappalli, Tamil Nadu 620002",
    "latitude": 10.8317326,
    "longitude": 78.69329689999999
  },
  {
    "name": "Inspector AR Office",
    "address": "QM5M+8CP, K K Nagar, Tiruchirappalli, Tamil Nadu 620021",
    "latitude": 10.7583538,
    "longitude": 78.6835643
  },
  {
    "name": "Police Local Beat",
    "address": "64E, Main Rd, Sengulum Colony, Mannarpuram, Subramanya Puram, Tiruchirappalli, Tamil Nadu 620020",
    "latitude": 10.7924449,
    "longitude": 78.6895887
  },
  {
    "name": "RPF Station",
    "address": "QMXX+G3V, Bells Railway Colony, Sangillyandapuram, Tiruchirappalli, Tamil Nadu 620001",
    "latitude": 10.7988266,
    "longitude": 78.6976634
  },
  {
    "name": "Reserve Police Trichy",
    "address": "QMPX+63V, Kajamalai Colony, Tiruchirappalli, Tamil Nadu 620020",
    "latitude": 10.7856144,
    "longitude": 78.6976605
  },
  {
    "name": "cbcid",
    "address": "QMMQ+FRR, Kaja Nagar, Edamalaipatti Pudur, Tiruchirappalli, Tamil Nadu 620023",
    "latitude": 10.7838616,
    "longitude": 78.6895083
  }
]